{
"type": "FeatureCollection",
"name": "asociaciones_civiles_Temperley",
"crs": { "type": "name", "properties": { "name": "urn:ogc:def:crs:OGC:1.3:CRS84" } },
"features": [
{ "type": "Feature", "properties": { "CGM": "Temperley", "NOMBRE": "Acercandonos", "TIPO": "ASOCIACIONES CIVILES", "Fecha Vencimiento Reconocimiento": "2026-04-19T00:00:00", "LATITUD": -34.775169, "LONGITUD": -58.38856 }, "geometry": { "type": "Point", "coordinates": [ -58.38856, -34.775169 ] } },
{ "type": "Feature", "properties": { "CGM": "Temperley", "NOMBRE": "Agrupacion Tradicionalista Chackay Manta Temperley Manta", "TIPO": "ASOCIACIONES CIVILES", "Fecha Vencimiento Reconocimiento": "2026-04-19T00:00:00", "LATITUD": -34.777449, "LONGITUD": -58.387079 }, "geometry": { "type": "Point", "coordinates": [ -58.387079, -34.777449 ] } },
{ "type": "Feature", "properties": { "CGM": "Temperley", "NOMBRE": "Amigos Del Turismo Carretera Historico", "TIPO": "ASOCIACIONES CIVILES", "Fecha Vencimiento Reconocimiento": "2026-12-21T00:00:00", "LATITUD": -34.78434298, "LONGITUD": -58.38909806 }, "geometry": { "type": "Point", "coordinates": [ -58.38909806, -34.78434298 ] } },
{ "type": "Feature", "properties": { "CGM": "Temperley", "NOMBRE": "Asociacion Argentina De Ensenanza Andre Coindre Sede Temperley", "TIPO": "ASOCIACIONES CIVILES", "Fecha Vencimiento Reconocimiento": "2026-12-21T00:00:00", "LATITUD": -34.78120162, "LONGITUD": -58.39837293 }, "geometry": { "type": "Point", "coordinates": [ -58.39837293, -34.78120162 ] } },
{ "type": "Feature", "properties": { "CGM": "Temperley", "NOMBRE": "Asociacion Civil Barrios De Pie", "TIPO": "ASOCIACIONES CIVILES", "Fecha Vencimiento Reconocimiento": "2026-12-21T00:00:00", "LATITUD": -34.77073355, "LONGITUD": -58.37005166 }, "geometry": { "type": "Point", "coordinates": [ -58.37005166, -34.77073355 ] } },
{ "type": "Feature", "properties": { "CGM": "Temperley", "NOMBRE": "Asociacion Civil De Rescatistas Argentinos Asociados", "TIPO": "ASOCIACIONES CIVILES", "Fecha Vencimiento Reconocimiento": "2026-12-21T00:00:00", "LATITUD": -34.764061, "LONGITUD": -58.3775 }, "geometry": { "type": "Point", "coordinates": [ -58.3775, -34.764061 ] } },
{ "type": "Feature", "properties": { "CGM": "Temperley", "NOMBRE": "Asociacion Civil Educacion E Igualdad", "TIPO": "ASOCIACIONES CIVILES", "Fecha Vencimiento Reconocimiento": "2026-12-21T00:00:00", "LATITUD": -34.776842, "LONGITUD": -58.398171 }, "geometry": { "type": "Point", "coordinates": [ -58.398171, -34.776842 ] } },
{ "type": "Feature", "properties": { "CGM": "Temperley", "NOMBRE": "Asociacion Civil Espacio Comunitario Y Cultural De  Ideas (E.C.C.I)", "TIPO": "ASOCIACIONES CIVILES", "Fecha Vencimiento Reconocimiento": "2026-12-21T00:00:00", "LATITUD": -34.777773, "LONGITUD": -58.397278 }, "geometry": { "type": "Point", "coordinates": [ -58.397278, -34.777773 ] } },
{ "type": "Feature", "properties": { "CGM": "Temperley", "NOMBRE": "Asociacion De Propietarios De Remises", "TIPO": "ASOCIACIONES CIVILES", "Fecha Vencimiento Reconocimiento": "2026-12-21T00:00:00", "LATITUD": -34.771289, "LONGITUD": -58.398425 }, "geometry": { "type": "Point", "coordinates": [ -58.398425, -34.771289 ] } },
{ "type": "Feature", "properties": { "CGM": "Temperley", "NOMBRE": "Asociacion Protectora De Animales San Nicolas De Lomas De Zamora", "TIPO": "ASOCIACIONES CIVILES", "Fecha Vencimiento Reconocimiento": "2026-12-21T00:00:00", "LATITUD": -34.78317388, "LONGITUD": -58.38313904 }, "geometry": { "type": "Point", "coordinates": [ -58.38313904, -34.78317388 ] } },
{ "type": "Feature", "properties": { "CGM": "Temperley", "NOMBRE": "Asociacion Quiero Ser", "TIPO": "ASOCIACIONES CIVILES", "Fecha Vencimiento Reconocimiento": "2026-12-21T00:00:00", "LATITUD": -34.779714, "LONGITUD": -58.402303 }, "geometry": { "type": "Point", "coordinates": [ -58.402303, -34.779714 ] } },
{ "type": "Feature", "properties": { "CGM": "Temperley", "NOMBRE": "Ateneo Parroquial De Temperley", "TIPO": "ASOCIACIONES CIVILES", "Fecha Vencimiento Reconocimiento": "2026-12-21T00:00:00", "LATITUD": -34.774443, "LONGITUD": -58.400194 }, "geometry": { "type": "Point", "coordinates": [ -58.400194, -34.774443 ] } },
{ "type": "Feature", "properties": { "CGM": "Temperley", "NOMBRE": "Centro Comercial Industrial Y Propietarios De Temperley", "TIPO": "ASOCIACIONES CIVILES", "Fecha Vencimiento Reconocimiento": "2026-12-21T00:00:00", "LATITUD": -34.77757884, "LONGITUD": -58.3992729 }, "geometry": { "type": "Point", "coordinates": [ -58.3992729, -34.77757884 ] } },
{ "type": "Feature", "properties": { "CGM": "Temperley", "NOMBRE": "Centro De Inventigaciones En Ciencias Y Tecnologia S", "TIPO": "ASOCIACIONES CIVILES", "Fecha Vencimiento Reconocimiento": "2026-12-21T00:00:00", "LATITUD": -34.780122, "LONGITUD": -58.406598 }, "geometry": { "type": "Point", "coordinates": [ -58.406598, -34.780122 ] } },
{ "type": "Feature", "properties": { "CGM": "Temperley", "NOMBRE": "Chiquilin", "TIPO": "ASOCIACIONES CIVILES", "Fecha Vencimiento Reconocimiento": "2026-12-21T00:00:00", "LATITUD": -34.77238218, "LONGITUD": -58.39764785 }, "geometry": { "type": "Point", "coordinates": [ -58.39764785, -34.77238218 ] } },
{ "type": "Feature", "properties": { "CGM": "Temperley", "NOMBRE": "Circulo Catolico De Obreros De Turdera", "TIPO": "ASOCIACIONES CIVILES", "Fecha Vencimiento Reconocimiento": "2026-12-21T00:00:00", "LATITUD": -34.760584, "LONGITUD": -58.380559 }, "geometry": { "type": "Point", "coordinates": [ -58.380559, -34.760584 ] } },
{ "type": "Feature", "properties": { "CGM": "Temperley", "NOMBRE": "Colectivo T.A.M.(Trabajadores De Las Artes Del Movimiento Del Conurbano Sur)", "TIPO": "ASOCIACIONES CIVILES", "Fecha Vencimiento Reconocimiento": "2026-12-21T00:00:00", "LATITUD": -34.771311, "LONGITUD": -58.390095 }, "geometry": { "type": "Point", "coordinates": [ -58.390095, -34.771311 ] } },
{ "type": "Feature", "properties": { "CGM": "Temperley", "NOMBRE": "Comunidad Catolica De Habla Alemana San Bonifacio", "TIPO": "ASOCIACIONES CIVILES", "Fecha Vencimiento Reconocimiento": "2026-12-21T00:00:00", "LATITUD": -34.77933754, "LONGITUD": -58.38629477 }, "geometry": { "type": "Point", "coordinates": [ -58.38629477, -34.77933754 ] } },
{ "type": "Feature", "properties": { "CGM": "Temperley", "NOMBRE": "Convihivir", "TIPO": "ASOCIACIONES CIVILES", "Fecha Vencimiento Reconocimiento": "2026-12-21T00:00:00", "LATITUD": -34.77817102, "LONGITUD": -58.37873467 }, "geometry": { "type": "Point", "coordinates": [ -58.37873467, -34.77817102 ] } },
{ "type": "Feature", "properties": { "CGM": "Temperley", "NOMBRE": "El Rincon De La Esperanza", "TIPO": "ASOCIACIONES CIVILES", "Fecha Vencimiento Reconocimiento": "2026-12-21T00:00:00", "LATITUD": -34.78411173, "LONGITUD": -58.41954495 }, "geometry": { "type": "Point", "coordinates": [ -58.41954495, -34.78411173 ] } },
{ "type": "Feature", "properties": { "CGM": "Temperley", "NOMBRE": "El Sendero Azul", "TIPO": "ASOCIACIONES CIVILES", "Fecha Vencimiento Reconocimiento": "2026-12-21T00:00:00", "LATITUD": -34.78104728, "LONGITUD": -58.39324333 }, "geometry": { "type": "Point", "coordinates": [ -58.39324333, -34.78104728 ] } },
{ "type": "Feature", "properties": { "CGM": "Temperley", "NOMBRE": "Federacion Bonaerense De Asociaciones De Bomberos Voluntarios", "TIPO": "ASOCIACIONES CIVILES", "Fecha Vencimiento Reconocimiento": "2026-12-21T00:00:00", "LATITUD": -34.786183, "LONGITUD": -58.388932 }, "geometry": { "type": "Point", "coordinates": [ -58.388932, -34.786183 ] } },
{ "type": "Feature", "properties": { "CGM": "Temperley", "NOMBRE": "Grupo Scout Ceferino Namuncura", "TIPO": "ASOCIACIONES CIVILES", "Fecha Vencimiento Reconocimiento": "2026-12-21T00:00:00", "LATITUD": -34.76949, "LONGITUD": -58.370253 }, "geometry": { "type": "Point", "coordinates": [ -58.370253, -34.76949 ] } },
{ "type": "Feature", "properties": { "CGM": "Temperley", "NOMBRE": "Grupo Scout Coronel De Marina Jose De Murature", "TIPO": "ASOCIACIONES CIVILES", "Fecha Vencimiento Reconocimiento": "2026-12-21T00:00:00", "LATITUD": -34.77315813, "LONGITUD": -58.37228848 }, "geometry": { "type": "Point", "coordinates": [ -58.37228848, -34.77315813 ] } },
{ "type": "Feature", "properties": { "CGM": "Temperley", "NOMBRE": "Grupo Scout Madre Teresa De Calcuta", "TIPO": "ASOCIACIONES CIVILES", "Fecha Vencimiento Reconocimiento": "2026-12-21T00:00:00", "LATITUD": -34.781309, "LONGITUD": -58.38183 }, "geometry": { "type": "Point", "coordinates": [ -58.38183, -34.781309 ] } },
{ "type": "Feature", "properties": { "CGM": "Temperley", "NOMBRE": "Jovenes Profesionales Lomenses", "TIPO": "ASOCIACIONES CIVILES", "Fecha Vencimiento Reconocimiento": "2026-12-21T00:00:00", "LATITUD": -34.766787, "LONGITUD": -58.392269 }, "geometry": { "type": "Point", "coordinates": [ -58.392269, -34.766787 ] } },
{ "type": "Feature", "properties": { "CGM": "Temperley", "NOMBRE": "Las Golondrinas Del Roca", "TIPO": "ASOCIACIONES CIVILES", "Fecha Vencimiento Reconocimiento": "2026-12-21T00:00:00", "LATITUD": -34.769369, "LONGITUD": -58.369328 }, "geometry": { "type": "Point", "coordinates": [ -58.369328, -34.769369 ] } },
{ "type": "Feature", "properties": { "CGM": "Temperley", "NOMBRE": "Liga Ferromodelo Sud", "TIPO": "ASOCIACIONES CIVILES", "Fecha Vencimiento Reconocimiento": "2026-12-21T00:00:00", "LATITUD": -34.777017, "LONGITUD": -58.39699 }, "geometry": { "type": "Point", "coordinates": [ -58.39699, -34.777017 ] } },
{ "type": "Feature", "properties": { "CGM": "Temperley", "NOMBRE": "Primera Galeria De Arte En Temperley  Zulema T. Barriero", "TIPO": "ASOCIACIONES CIVILES", "Fecha Vencimiento Reconocimiento": "2026-12-21T00:00:00", "LATITUD": -34.780576, "LONGITUD": -58.401498 }, "geometry": { "type": "Point", "coordinates": [ -58.401498, -34.780576 ] } },
{ "type": "Feature", "properties": { "CGM": "Temperley", "NOMBRE": "Protocosa", "TIPO": "ASOCIACIONES CIVILES", "Fecha Vencimiento Reconocimiento": "2026-12-21T00:00:00", "LATITUD": -34.763448, "LONGITUD": -58.388456 }, "geometry": { "type": "Point", "coordinates": [ -58.388456, -34.763448 ] } },
{ "type": "Feature", "properties": { "CGM": "Temperley", "NOMBRE": "Sindicato De Luz Y Fuerza Capital Federal", "TIPO": "ASOCIACIONES CIVILES", "Fecha Vencimiento Reconocimiento": "2026-12-21T00:00:00", "LATITUD": -34.77570067, "LONGITUD": -58.4019771 }, "geometry": { "type": "Point", "coordinates": [ -58.4019771, -34.77570067 ] } },
{ "type": "Feature", "properties": { "CGM": "Temperley", "NOMBRE": "Sonando Un Mundo Mejor", "TIPO": "ASOCIACIONES CIVILES", "Fecha Vencimiento Reconocimiento": "2026-12-21T00:00:00", "LATITUD": -34.77146333, "LONGITUD": -58.37438792 }, "geometry": { "type": "Point", "coordinates": [ -58.37438792, -34.77146333 ] } }
]
}
