{
"type": "FeatureCollection",
"name": "bacheo_2024_Albertina",
"crs": { "type": "name", "properties": { "name": "urn:ogc:def:crs:OGC:1.3:CRS84" } },
"features": [
{ "type": "Feature", "properties": { "Nombre": "Ricardo Palma y Paris", "CGM": "Albertina" }, "geometry": { "type": "Point", "coordinates": [ -58.4486651, -34.7341297, 0.0 ] } },
{ "type": "Feature", "properties": { "Nombre": "HUNDIMIENTO Guaminí y Napoles", "CGM": "Albertina" }, "geometry": { "type": "Point", "coordinates": [ -58.4450304, -34.7298575, 0.0 ] } },
{ "type": "Feature", "properties": { "Nombre": "Paris y Claudio de Alas", "CGM": "Albertina" }, "geometry": { "type": "Point", "coordinates": [ -58.4511542, -34.7354048, 0.0 ] } },
{ "type": "Feature", "properties": { "Nombre": "A.Machado y Paris", "CGM": "Albertina" }, "geometry": { "type": "Point", "coordinates": [ -58.4499124, -34.734763, 0.0 ] } },
{ "type": "Feature", "properties": { "Nombre": "HUNDIMENTO Carriego y Rodriguez", "CGM": "Albertina" }, "geometry": { "type": "Point", "coordinates": [ -58.4471472, -34.7428319, 0.0 ] } },
{ "type": "Feature", "properties": { "Nombre": "Andrés Bello y Ostende", "CGM": "Albertina" }, "geometry": { "type": "Point", "coordinates": [ -58.4567645, -34.7326491, 0.0 ] } },
{ "type": "Feature", "properties": { "Nombre": "HUNDIMIENTO Paris ENTRE Andrés Bello y Lavarden", "CGM": "Albertina" }, "geometry": { "type": "Point", "coordinates": [ -58.4542645, -34.7370298, 0.0 ] } },
{ "type": "Feature", "properties": { "Nombre": "Juan. D. Perón y Barcelona", "CGM": "Albertina" }, "geometry": { "type": "Point", "coordinates": [ -58.439173, -34.7306642, 0.0 ] } },
{ "type": "Feature", "properties": { "Nombre": "GuamIní y Ginebra", "CGM": "Albertina" }, "geometry": { "type": "Point", "coordinates": [ -58.4481356, -34.7257507, 0.0 ] } },
{ "type": "Feature", "properties": { "Nombre": "Cosquín y Bolonia", "CGM": "Albertina" }, "geometry": { "type": "Point", "coordinates": [ -58.4431229, -34.727847, 0.0 ] } },
{ "type": "Feature", "properties": { "Nombre": "Campoamor y La Haya", "CGM": "Albertina" }, "geometry": { "type": "Point", "coordinates": [ -58.4460253, -34.7262944, 0.0 ] } }
]
}
