{
"type": "FeatureCollection",
"name": "bacheo_2025_Turdera",
"crs": { "type": "name", "properties": { "name": "urn:ogc:def:crs:OGC:1.3:CRS84" } },
"features": [
{ "type": "Feature", "properties": { "nombre": "Antártida Argentina 132, B1836ANP Turdera, Provincia de Buenos Aires, Argentina", "CGM": "Turdera" }, "geometry": { "type": "Point", "coordinates": [ -58.4102855, -34.7903667, 0.0 ] } },
{ "type": "Feature", "properties": { "nombre": "Reconquista 367, B1833AVG Turdera, Provincia de Buenos Aires, Argentina", "CGM": "Turdera" }, "geometry": { "type": "Point", "coordinates": [ -58.4081008, -34.7918774, 0.0 ] } },
{ "type": "Feature", "properties": { "nombre": "San Pablo 200, B1833CGD Turdera, Provincia de Buenos Aires, Argentina", "CGM": "Turdera" }, "geometry": { "type": "Point", "coordinates": [ -58.4093025, -34.7954374, 0.0 ] } },
{ "type": "Feature", "properties": { "nombre": "Miguel Estanislao Soler 2120, B1833AGH Turdera, Provincia de Buenos Aires, Argentina", "CGM": "Turdera" }, "geometry": { "type": "Point", "coordinates": [ -58.399279, -34.7897383, 0.0 ] } },
{ "type": "Feature", "properties": { "nombre": "Av. 9 de Julio 1695, B1836 Turdera, Provincia de Buenos Aires, Argentina", "CGM": "Turdera" }, "geometry": { "type": "Point", "coordinates": [ -58.415418, -34.7900583, 0.0 ] } },
{ "type": "Feature", "properties": { "nombre": "San Benito 898, B1836 Turdera, Provincia de Buenos Aires, Argentina", "CGM": "Turdera" }, "geometry": { "type": "Point", "coordinates": [ -58.4105927, -34.7961814, 0.0 ] } },
{ "type": "Feature", "properties": { "nombre": "General Riego Y Núñez, 702, B1834 Turdera, Provincia de Buenos Aires, Argentina", "CGM": "Turdera" }, "geometry": { "type": "Point", "coordinates": [ -58.4003043, -34.790294, 0.0 ] } },
{ "type": "Feature", "properties": { "nombre": "Antártida Argentina 299, B1836 Turdera, Provincia de Buenos Aires, Argentina", "CGM": "Turdera" }, "geometry": { "type": "Point", "coordinates": [ -58.4111808, -34.7907898, 0.0 ] } },
{ "type": "Feature", "properties": { "nombre": "AGC, Pichincha 1495, B1834 Temperley, Provincia de Buenos Aires, Argentina", "CGM": "Turdera" }, "geometry": { "type": "Point", "coordinates": [ -58.4140263, -34.7871757, 0.0 ] } },
{ "type": "Feature", "properties": { "nombre": "Pichincha 1887, B1834AHC Temperley, Provincia de Buenos Aires, Argentina", "CGM": "Turdera" }, "geometry": { "type": "Point", "coordinates": [ -58.4166073, -34.7885803, 0.0 ] } },
{ "type": "Feature", "properties": { "nombre": "San Mateo 350, B1836 Turdera, Provincia de Buenos Aires, Argentina", "CGM": "Turdera" }, "geometry": { "type": "Point", "coordinates": [ -58.4137017, -34.7875909, 0.0 ] } },
{ "type": "Feature", "properties": { "nombre": "Av. 9 de Julio 1145, B1836AAC Turdera, Provincia de Buenos Aires, Argentina", "CGM": "Turdera" }, "geometry": { "type": "Point", "coordinates": [ -58.4106923, -34.7875028, 0.0 ] } },
{ "type": "Feature", "properties": { "nombre": "San Mateo 1160, B1836 Temperley, Provincia de Buenos Aires, Argentina", "CGM": "Turdera" }, "geometry": { "type": "Point", "coordinates": [ -58.4144143, -34.7866423, 0.0 ] } },
{ "type": "Feature", "properties": { "nombre": "AVI, Reconquista 655, B1833 Turdera, Provincia de Buenos Aires, Argentina", "CGM": "Turdera" }, "geometry": { "type": "Point", "coordinates": [ -58.4116642, -34.7924759, 0.0 ] } }
]
}
