{
"type": "FeatureCollection",
"name": "bache_en_concreto_Albertina",
"crs": { "type": "name", "properties": { "name": "urn:ogc:def:crs:OGC:1.3:CRS84" } },
"features": [
{ "type": "Feature", "properties": { "Nombre": "Av. Gral. Martín Rodríguez 2400, B1821 Ingeniero Budge, Provincia de Buenos Aires, Argentina", "CGM": "Albertina" }, "geometry": { "type": "Point", "coordinates": [ -58.445941, -34.7421596, 0.0 ] } },
{ "type": "Feature", "properties": { "Nombre": "Av. Gral. Martín Rodríguez 2640, B1828 Ingeniero Budge, Provincia de Buenos Aires, Argentina", "CGM": "Albertina" }, "geometry": { "type": "Point", "coordinates": [ -58.4487668, -34.7437561, 0.0 ] } },
{ "type": "Feature", "properties": { "Nombre": "Av. Gral. Martín Rodríguez 2640, B1828 Ingeniero Budge, Provincia de Buenos Aires, Argentina", "CGM": "Albertina" }, "geometry": { "type": "Point", "coordinates": [ -58.4488057, -34.7437748, 0.0 ] } },
{ "type": "Feature", "properties": { "Nombre": "Av. General Martín Rodríguez Y Andrés Bello, B1828 Ingeniero Budge, Provincia de Buenos Aires, Argentina", "CGM": "Albertina" }, "geometry": { "type": "Point", "coordinates": [ -58.4487291, -34.7437374, 0.0 ] } },
{ "type": "Feature", "properties": { "Nombre": "Av. Gral. Martín Rodríguez 2657, B1828 Ingeniero Budge, Provincia de Buenos Aires, Argentina", "CGM": "Albertina" }, "geometry": { "type": "Point", "coordinates": [ -58.448955, -34.7438421, 0.0 ] } },
{ "type": "Feature", "properties": { "Nombre": "Tavano Juan Bruno Int. 2007, B1828 Lomas de Zamora, Provincia de Buenos Aires, Argentina", "CGM": "Albertina" }, "geometry": { "type": "Point", "coordinates": [ -58.4522708, -34.7456627, 0.0 ] } },
{ "type": "Feature", "properties": { "Nombre": "Bolonia 2101, B1821 Lomas de Zamora, Provincia de Buenos Aires, Argentina", "CGM": "Albertina" }, "geometry": { "type": "Point", "coordinates": [ -58.4491674, -34.7312004, 0.0 ] } },
{ "type": "Feature", "properties": { "Nombre": "AMP, Virgen de Itatí 1936, B1821 Ingeniero Budge, Provincia de Buenos Aires, Argentina", "CGM": "Albertina" }, "geometry": { "type": "Point", "coordinates": [ -58.4479353, -34.7288931, 0.0 ] } },
{ "type": "Feature", "properties": { "Nombre": "Virgen de Itatí 1969, B1821AMO Ingeniero Budge, Provincia de Buenos Aires, Argentina", "CGM": "Albertina" }, "geometry": { "type": "Point", "coordinates": [ -58.4484048, -34.7291652, 0.0 ] } },
{ "type": "Feature", "properties": { "Nombre": "Virgen de Itatí 1969, B1821AMO Ingeniero Budge, Provincia de Buenos Aires, Argentina", "CGM": "Albertina" }, "geometry": { "type": "Point", "coordinates": [ -58.4484269, -34.7291471, 0.0 ] } },
{ "type": "Feature", "properties": { "Nombre": "Virgen de Itatí 2001-2099, B1828 Ingeniero Budge, Provincia de Buenos Aires, Argentina", "CGM": "Albertina" }, "geometry": { "type": "Point", "coordinates": [ -58.4498672, -34.7298949, 0.0 ] } },
{ "type": "Feature", "properties": { "Nombre": "AMR, Virgen de Itatí 2075, B1821 Ingeniero Budge, Provincia de Buenos Aires, Argentina", "CGM": "Albertina" }, "geometry": { "type": "Point", "coordinates": [ -58.4498886, -34.7298686, 0.0 ] } },
{ "type": "Feature", "properties": { "Nombre": "AMR, Virgen de Itatí 2051, B1821 Ingeniero Budge, Provincia de Buenos Aires, Argentina", "CGM": "Albertina" }, "geometry": { "type": "Point", "coordinates": [ -58.4494982, -34.7297088, 0.0 ] } },
{ "type": "Feature", "properties": { "Nombre": "Virgen de Itatí 2103, B1821AMT Ingeniero Budge, Provincia de Buenos Aires, Argentina", "CGM": "Albertina" }, "geometry": { "type": "Point", "coordinates": [ -58.4500787, -34.7299844, 0.0 ] } },
{ "type": "Feature", "properties": { "Nombre": "Virgen de Itatí 2103, B1821AMT Ingeniero Budge, Provincia de Buenos Aires, Argentina", "CGM": "Albertina" }, "geometry": { "type": "Point", "coordinates": [ -58.4501726, -34.7300351, 0.0 ] } },
{ "type": "Feature", "properties": { "Nombre": "AMT, Virgen de Itatí 2165, B1821 Ingeniero Budge, Provincia de Buenos Aires, Argentina", "CGM": "Albertina" }, "geometry": { "type": "Point", "coordinates": [ -58.4508793, -34.7304022, 0.0 ] } },
{ "type": "Feature", "properties": { "Nombre": "AMF, Virgen de Itatí 1550, B1821 Ingeniero Budge, Provincia de Buenos Aires, Argentina", "CGM": "Albertina" }, "geometry": { "type": "Point", "coordinates": [ -58.4432765, -34.7265032, 0.0 ] } },
{ "type": "Feature", "properties": { "Nombre": "Virgen de Itatí 1638 B1821AMJ, B1821AMJ Ingeniero Budge, Provincia de Buenos Aires, Argentina", "CGM": "Albertina" }, "geometry": { "type": "Point", "coordinates": [ -58.4445197, -34.7271665, 0.0 ] } },
{ "type": "Feature", "properties": { "Nombre": "Virgen de Itatí 1638 B1821AMJ, B1821AMJ Ingeniero Budge, Provincia de Buenos Aires, Argentina", "CGM": "Albertina" }, "geometry": { "type": "Point", "coordinates": [ -58.4444393, -34.7271205, 0.0 ] } },
{ "type": "Feature", "properties": { "Nombre": "Virgen de Itatí 1646, B1821AMJ Ingeniero Budge, Provincia de Buenos Aires, Argentina", "CGM": "Albertina" }, "geometry": { "type": "Point", "coordinates": [ -58.4443338, -34.7270488, 0.0 ] } },
{ "type": "Feature", "properties": { "Nombre": "Virgen de Itatí 1848, B1828 Ingeniero Budge, Provincia de Buenos Aires, Argentina", "CGM": "Albertina" }, "geometry": { "type": "Point", "coordinates": [ -58.4452608, -34.727547, 0.0 ] } },
{ "type": "Feature", "properties": { "Nombre": "Virgen de Itatí 1722, B1821 Ingeniero Budge, Provincia de Buenos Aires, Argentina", "CGM": "Albertina" }, "geometry": { "type": "Point", "coordinates": [ -58.4454292, -34.7276547, 0.0 ] } },
{ "type": "Feature", "properties": { "Nombre": "Homero 2101-2299, B1832 Ingeniero Budge, Provincia de Buenos Aires, Argentina", "CGM": "Albertina" }, "geometry": { "type": "Point", "coordinates": [ -58.4564531, -34.7427548, 0.0 ] } },
{ "type": "Feature", "properties": { "Nombre": "Bidazoa 298, B1827 Lomas de Zamora, Provincia de Buenos Aires, Argentina", "CGM": "Albertina" }, "geometry": { "type": "Point", "coordinates": [ -58.4573125, -34.7432156, 0.0 ] } },
{ "type": "Feature", "properties": { "Nombre": "Virgen de Itatí 2247, B1821 Ingeniero Budge, Provincia de Buenos Aires, Argentina", "CGM": "Albertina" }, "geometry": { "type": "Point", "coordinates": [ -58.4517937, -34.7308602, 0.0 ] } },
{ "type": "Feature", "properties": { "Nombre": "Virgen de Itatí 2205, B1821AMU Ingeniero Budge, Provincia de Buenos Aires, Argentina", "CGM": "Albertina" }, "geometry": { "type": "Point", "coordinates": [ -58.4515622, -34.7307472, 0.0 ] } },
{ "type": "Feature", "properties": { "Nombre": "Saladillo 921, B1832 Lomas de Zamora, Provincia de Buenos Aires, Argentina", "CGM": "Albertina" }, "geometry": { "type": "Point", "coordinates": [ -58.4488857, -34.7294049, 0.0 ] } },
{ "type": "Feature", "properties": { "Nombre": "Francisco de Aguirre 511, B1827GSG Ingeniero Budge, Provincia de Buenos Aires, Argentina", "CGM": "Albertina" }, "geometry": { "type": "Point", "coordinates": [ -58.4654286, -34.7365501, 0.0 ] } },
{ "type": "Feature", "properties": { "Nombre": "CNS, Bustos 3100, B1827 Ingeniero Budge, Provincia de Buenos Aires, Argentina", "CGM": "Albertina" }, "geometry": { "type": "Point", "coordinates": [ -58.464231, -34.738152, 0.0 ] } },
{ "type": "Feature", "properties": { "Nombre": "Avenida General Martín Rodríguez Y Evaristo Carriego, B1828 Ingeniero Budge, Provincia de Buenos Aires, Argentina", "CGM": "Albertina" }, "geometry": { "type": "Point", "coordinates": [ -58.4471472, -34.7428319, 0.0 ] } },
{ "type": "Feature", "properties": { "Nombre": "Voltaire 2127, B1828 Lomas de Zamora, Provincia de Buenos Aires, Argentina", "CGM": "Albertina" }, "geometry": { "type": "Point", "coordinates": [ -58.4540892, -34.7446046, 0.0 ] } },
{ "type": "Feature", "properties": { "Nombre": "Arlucea 99, B1828 Ingeniero Budge, Provincia de Buenos Aires, Argentina", "CGM": "Albertina" }, "geometry": { "type": "Point", "coordinates": [ -58.4533641, -34.7442367, 0.0 ] } },
{ "type": "Feature", "properties": { "Nombre": "Bernardo Gral, Bernardo O'Higgins 2234, B1832 Llavallol, Provincia de Buenos Aires, Argentina", "CGM": "Albertina" }, "geometry": { "type": "Point", "coordinates": [ -58.461842, -34.7468421, 0.0 ] } },
{ "type": "Feature", "properties": { "Nombre": "Bernardo Gral, Bernardo O'Higgins 2271, B1832 Llavallol, Provincia de Buenos Aires, Argentina", "CGM": "Albertina" }, "geometry": { "type": "Point", "coordinates": [ -58.4622, -34.7463905, 0.0 ] } },
{ "type": "Feature", "properties": { "Nombre": "Bernardo O'Higgins 2314, B1827CWF Ingeniero Budge, Provincia de Buenos Aires, Argentina", "CGM": "Albertina" }, "geometry": { "type": "Point", "coordinates": [ -58.4626088, -34.7458417, 0.0 ] } },
{ "type": "Feature", "properties": { "Nombre": "800, B1827GIN, Bidazoa 702, B1827GIN Ingeniero Budge, Provincia de Buenos Aires, Argentina", "CGM": "Albertina" }, "geometry": { "type": "Point", "coordinates": [ -58.4625297, -34.7459186, 0.0 ] } },
{ "type": "Feature", "properties": { "Nombre": "Terrada 2210, B1832 Lomas de Zamora, Provincia de Buenos Aires, Argentina", "CGM": "Albertina" }, "geometry": { "type": "Point", "coordinates": [ -58.4609738, -34.7465974, 0.0 ] } },
{ "type": "Feature", "properties": { "Nombre": "Terrada 2192, B1827CTB Ingeniero Budge, Provincia de Buenos Aires, Argentina", "CGM": "Albertina" }, "geometry": { "type": "Point", "coordinates": [ -58.4609289, -34.7466568, 0.0 ] } },
{ "type": "Feature", "properties": { "Nombre": "Bernardo O'Higgins 2197, B1827 Lomas de Zamora, Provincia de Buenos Aires, Argentina", "CGM": "Albertina" }, "geometry": { "type": "Point", "coordinates": [ -58.4617113, -34.7470131, 0.0 ] } },
{ "type": "Feature", "properties": { "Nombre": "Bernardo O'Higgins 2197, B1827 Lomas de Zamora, Provincia de Buenos Aires, Argentina", "CGM": "Albertina" }, "geometry": { "type": "Point", "coordinates": [ -58.4616946, -34.7470351, 0.0 ] } },
{ "type": "Feature", "properties": { "Nombre": "Guernica 793, B1827GHO Ingeniero Budge, Provincia de Buenos Aires, Argentina", "CGM": "Albertina" }, "geometry": { "type": "Point", "coordinates": [ -58.461433, -34.7468756, 0.0 ] } },
{ "type": "Feature", "properties": { "Nombre": "Guernica 756, B1827GHP Ingeniero Budge, Provincia de Buenos Aires, Argentina", "CGM": "Albertina" }, "geometry": { "type": "Point", "coordinates": [ -58.4614733, -34.7468966, 0.0 ] } },
{ "type": "Feature", "properties": { "Nombre": "Santa Marta, Arlucea 299, B1832 Lomas de Zamora, Provincia de Buenos Aires, Argentina", "CGM": "Albertina" }, "geometry": { "type": "Point", "coordinates": [ -58.4556759, -34.7454111, 0.0 ] } },
{ "type": "Feature", "properties": { "Nombre": "Montiel 102, B1821FID Ingeniero Budge, Provincia de Buenos Aires, Argentina", "CGM": "Albertina" }, "geometry": { "type": "Point", "coordinates": [ -58.4407962, -34.7376776, 0.0 ] } },
{ "type": "Feature", "properties": { "Nombre": "Ginebra Y Colectora Camino Presidente Perón, B1828 Ingeniero Budge, Provincia de Buenos Aires, Argentina", "CGM": "Albertina" }, "geometry": { "type": "Point", "coordinates": [ -58.4444776, -34.7238318, 0.0 ] } },
{ "type": "Feature", "properties": { "Nombre": "Av. Eva Perón 3902, B1828 Banfield, Provincia de Buenos Aires, Argentina", "CGM": "Albertina" }, "geometry": { "type": "Point", "coordinates": [ -58.4439846, -34.7245008, 0.0 ] } },
{ "type": "Feature", "properties": { "Nombre": "Montiel 102, B1821FID Ingeniero Budge, Provincia de Buenos Aires, Argentina", "CGM": "Albertina" }, "geometry": { "type": "Point", "coordinates": [ -58.4407962, -34.7376776, 0.0 ] } },
{ "type": "Feature", "properties": { "Nombre": "Campoamor 99, B1821 Lomas de Zamora, Provincia de Buenos Aires, Argentina", "CGM": "Albertina" }, "geometry": { "type": "Point", "coordinates": [ -58.4382722, -34.736397, 0.0 ] } },
{ "type": "Feature", "properties": { "Nombre": "Martín García de Loyola 302, B1827 Lomas de Zamora, Provincia de Buenos Aires, Argentina", "CGM": "Albertina" }, "geometry": { "type": "Point", "coordinates": [ -58.4626822, -34.7362278, 0.0 ] } },
{ "type": "Feature", "properties": { "Nombre": "Euskadi 3184, B1832 Ingeniero Budge, Provincia de Buenos Aires, Argentina", "CGM": "Albertina" }, "geometry": { "type": "Point", "coordinates": [ -58.4628485, -34.736319, 0.0 ] } },
{ "type": "Feature", "properties": { "Nombre": "Martín García de Loyola 381, B1827GRG Ingeniero Budge, Provincia de Buenos Aires, Argentina", "CGM": "Albertina" }, "geometry": { "type": "Point", "coordinates": [ -58.4634011, -34.736594, 0.0 ] } },
{ "type": "Feature", "properties": { "Nombre": "Arana Goiri 3194, B1832EQD Ingeniero Budge, Provincia de Buenos Aires, Argentina", "CGM": "Albertina" }, "geometry": { "type": "Point", "coordinates": [ -58.4637527, -34.7367874, 0.0 ] } },
{ "type": "Feature", "properties": { "Nombre": "Arana Goiri 3208, B1832EQD Ingeniero Budge, Provincia de Buenos Aires, Argentina", "CGM": "Albertina" }, "geometry": { "type": "Point", "coordinates": [ -58.4638669, -34.7368277, 0.0 ] } },
{ "type": "Feature", "properties": { "Nombre": "Loyola M. G. de 440, B1832 Ingeniero Budge, Provincia de Buenos Aires, Argentina", "CGM": "Albertina" }, "geometry": { "type": "Point", "coordinates": [ -58.4642326, -34.7370218, 0.0 ] } },
{ "type": "Feature", "properties": { "Nombre": "Martín García de Loyola 451, B1827GRI Ingeniero Budge, Provincia de Buenos Aires, Argentina", "CGM": "Albertina" }, "geometry": { "type": "Point", "coordinates": [ -58.464565, -34.7371906, 0.0 ] } },
{ "type": "Feature", "properties": { "Nombre": "Terrada 3206, B1832 Ingeniero Budge, Provincia de Buenos Aires, Argentina", "CGM": "Albertina" }, "geometry": { "type": "Point", "coordinates": [ -58.4671251, -34.7384578, 0.0 ] } }
]
}
