{
"type": "FeatureCollection",
"name": "bacheo_2024_Temperley",
"crs": { "type": "name", "properties": { "name": "urn:ogc:def:crs:OGC:1.3:CRS84" } },
"features": [
{ "type": "Feature", "properties": { "Nombre": "La Calandria ENTRE Carabobo y Lituania + La Calandria ENTRE Lautaro y Carabobo", "CGM": "Temperley" }, "geometry": { "type": "Point", "coordinates": [ -58.3761235, -34.7700653, 0.0 ] } },
{ "type": "Feature", "properties": { "Nombre": "J.B. Vago e/ J.M Paz y Avellaneda", "CGM": "Temperley" }, "geometry": { "type": "Point", "coordinates": [ -58.4139003, -34.7819214, 0.0 ] } },
{ "type": "Feature", "properties": { "Nombre": "La Calandria ENTRE Carabobo y Lituania + La Calandria ENTRE Lautaro y Carabobo", "CGM": "Temperley" }, "geometry": { "type": "Point", "coordinates": [ -58.374997, -34.7694924, 0.0 ] } },
{ "type": "Feature", "properties": { "Nombre": "Carabobo y el Zorzal", "CGM": "Temperley" }, "geometry": { "type": "Point", "coordinates": [ -58.3741376, -34.7716333, 0.0 ] } },
{ "type": "Feature", "properties": { "Nombre": "Tarija ENTRE Las Flores y Don Bosco", "CGM": "Temperley" }, "geometry": { "type": "Point", "coordinates": [ -58.374117, -34.7767792, 0.0 ] } },
{ "type": "Feature", "properties": { "Nombre": "Tarija 1600 ENTRE Lautaro y Carabobo", "CGM": "Temperley" }, "geometry": { "type": "Point", "coordinates": [ -58.3717358, -34.7755318, 0.0 ] } },
{ "type": "Feature", "properties": { "Nombre": "R. de Rosas E/ Carabobo y Lituania", "CGM": "Temperley" }, "geometry": { "type": "Point", "coordinates": [ -58.3715371, -34.7741395, 0.0 ] } },
{ "type": "Feature", "properties": { "Nombre": "Las Flores Y Quilmes", "CGM": "Temperley" }, "geometry": { "type": "Point", "coordinates": [ -58.3750466, -34.7746484, 0.0 ] } },
{ "type": "Feature", "properties": { "Nombre": "Las Flores y La Golondrina", "CGM": "Temperley" }, "geometry": { "type": "Point", "coordinates": [ -58.3756939, -34.7737091, 0.0 ] } },
{ "type": "Feature", "properties": { "Nombre": "Churrinche y Lautaro", "CGM": "Temperley" }, "geometry": { "type": "Point", "coordinates": [ -58.3759547, -34.77126, 0.0 ] } },
{ "type": "Feature", "properties": { "Nombre": "Lautaro y La Calandria", "CGM": "Temperley" }, "geometry": { "type": "Point", "coordinates": [ -58.376676, -34.7703429, 0.0 ] } }
]
}
