{
"type": "FeatureCollection",
"name": "bacheo_2024_Temperley",
"crs": { "type": "name", "properties": { "name": "urn:ogc:def:crs:OGC:1.3:CRS84" } },
"features": [
{ "type": "Feature", "properties": { "Name": "La Calandria ENTRE Carabobo y Lituania + La Calandria ENTRE Lautaro y Carabobo", "description": "CGM TEMPERLEY<br><br>nombre: <br>descripción: ", "timestamp": null, "begin": null, "end": null, "altitudeMode": null, "tessellate": -1, "extrude": 0, "visibility": -1, "drawOrder": null, "icon": null, "nombre": "", "descripci__n": "", "CGM": "Temperley" }, "geometry": { "type": "Point", "coordinates": [ -58.3761235, -34.7700653, 0.0 ] } },
{ "type": "Feature", "properties": { "Name": "J.B. Vago e/ J.M Paz y Avellaneda", "description": "CGM TEMPERLEY<br><br>nombre: <br>descripción: ", "timestamp": null, "begin": null, "end": null, "altitudeMode": null, "tessellate": -1, "extrude": 0, "visibility": -1, "drawOrder": null, "icon": null, "nombre": "", "descripci__n": "", "CGM": "Temperley" }, "geometry": { "type": "Point", "coordinates": [ -58.4139003, -34.7819214, 0.0 ] } },
{ "type": "Feature", "properties": { "Name": "La Calandria ENTRE Carabobo y Lituania + La Calandria ENTRE Lautaro y Carabobo", "description": "CGM TEMPERLEY<br><br>nombre: <br>descripción: ", "timestamp": null, "begin": null, "end": null, "altitudeMode": null, "tessellate": -1, "extrude": 0, "visibility": -1, "drawOrder": null, "icon": null, "nombre": "", "descripci__n": "", "CGM": "Temperley" }, "geometry": { "type": "Point", "coordinates": [ -58.374997, -34.7694924, 0.0 ] } },
{ "type": "Feature", "properties": { "Name": "Carabobo y el Zorzal", "description": "CGM TEMPERLEY<br><br>nombre: <br>descripción: ", "timestamp": null, "begin": null, "end": null, "altitudeMode": null, "tessellate": -1, "extrude": 0, "visibility": -1, "drawOrder": null, "icon": null, "nombre": "", "descripci__n": "", "CGM": "Temperley" }, "geometry": { "type": "Point", "coordinates": [ -58.3741376, -34.7716333, 0.0 ] } },
{ "type": "Feature", "properties": { "Name": "Tarija ENTRE Las Flores y Don Bosco", "description": "CGM TEMPERLEY<br><br>nombre: <br>descripción: ", "timestamp": null, "begin": null, "end": null, "altitudeMode": null, "tessellate": -1, "extrude": 0, "visibility": -1, "drawOrder": null, "icon": null, "nombre": "", "descripci__n": "", "CGM": "Temperley" }, "geometry": { "type": "Point", "coordinates": [ -58.374117, -34.7767792, 0.0 ] } },
{ "type": "Feature", "properties": { "Name": "Tarija 1600 ENTRE Lautaro y Carabobo", "description": "CGM TEMPERLEY<br><br>nombre: <br>descripción: ", "timestamp": null, "begin": null, "end": null, "altitudeMode": null, "tessellate": -1, "extrude": 0, "visibility": -1, "drawOrder": null, "icon": null, "nombre": "", "descripci__n": "", "CGM": "Temperley" }, "geometry": { "type": "Point", "coordinates": [ -58.3717358, -34.7755318, 0.0 ] } },
{ "type": "Feature", "properties": { "Name": "R. de Rosas E/ Carabobo y Lituania", "description": "CGM TEMPERLEY<br><br>nombre: <br>descripción: ", "timestamp": null, "begin": null, "end": null, "altitudeMode": null, "tessellate": -1, "extrude": 0, "visibility": -1, "drawOrder": null, "icon": null, "nombre": "", "descripci__n": "", "CGM": "Temperley" }, "geometry": { "type": "Point", "coordinates": [ -58.3715371, -34.7741395, 0.0 ] } },
{ "type": "Feature", "properties": { "Name": "Las Flores Y Quilmes", "description": "CGM TEMPERLEY<br><br>nombre: <br>descripción: ", "timestamp": null, "begin": null, "end": null, "altitudeMode": null, "tessellate": -1, "extrude": 0, "visibility": -1, "drawOrder": null, "icon": null, "nombre": "", "descripci__n": "", "CGM": "Temperley" }, "geometry": { "type": "Point", "coordinates": [ -58.3750466, -34.7746484, 0.0 ] } },
{ "type": "Feature", "properties": { "Name": "Las Flores y La Golondrina", "description": "CGM TEMPERLEY<br><br>nombre: <br>descripción: ", "timestamp": null, "begin": null, "end": null, "altitudeMode": null, "tessellate": -1, "extrude": 0, "visibility": -1, "drawOrder": null, "icon": null, "nombre": "", "descripci__n": "", "CGM": "Temperley" }, "geometry": { "type": "Point", "coordinates": [ -58.3756939, -34.7737091, 0.0 ] } },
{ "type": "Feature", "properties": { "Name": "Churrinche y Lautaro", "description": "CGM TEMPERLEY <br><br>nombre: <br>descripción: ", "timestamp": null, "begin": null, "end": null, "altitudeMode": null, "tessellate": -1, "extrude": 0, "visibility": -1, "drawOrder": null, "icon": null, "nombre": "", "descripci__n": "", "CGM": "Temperley" }, "geometry": { "type": "Point", "coordinates": [ -58.3759547, -34.77126, 0.0 ] } },
{ "type": "Feature", "properties": { "Name": "Lautaro y La Calandria", "description": "CGM TEMPERLEY<br><br>nombre: <br>descripción: ", "timestamp": null, "begin": null, "end": null, "altitudeMode": null, "tessellate": -1, "extrude": 0, "visibility": -1, "drawOrder": null, "icon": null, "nombre": "", "descripci__n": "", "CGM": "Temperley" }, "geometry": { "type": "Point", "coordinates": [ -58.376676, -34.7703429, 0.0 ] } }
]
}
