{
"type": "FeatureCollection",
"name": "bacheo_2024_Lamadrid",
"crs": { "type": "name", "properties": { "name": "urn:ogc:def:crs:OGC:1.3:CRS84" } },
"features": [
{ "type": "Feature", "properties": { "Name": "Vucetich entre Monte y Oran", "description": "CGM LAMADRID<br><br>nombre: <br>descripción: ", "timestamp": null, "begin": null, "end": null, "altitudeMode": null, "tessellate": -1, "extrude": 0, "visibility": -1, "drawOrder": null, "icon": null, "nombre": "", "descripci__n": "", "CGM": "Lamadrid" }, "geometry": { "type": "Point", "coordinates": [ -58.4788168, -34.7281802, 0.0 ] } },
{ "type": "Feature", "properties": { "Name": "Campana y Lavarden ", "description": "CGM LAMADRID<br><br>nombre: <br>descripción: ", "timestamp": null, "begin": null, "end": null, "altitudeMode": null, "tessellate": -1, "extrude": 0, "visibility": -1, "drawOrder": null, "icon": null, "nombre": "", "descripci__n": "", "CGM": "Lamadrid" }, "geometry": { "type": "Point", "coordinates": [ -58.4679313, -34.720623, 0.0 ] } },
{ "type": "Feature", "properties": { "Name": "Tabaré E/ Homero y Távano", "description": "CGM LAMADRID<br><br>nombre: <br>descripción: ", "timestamp": null, "begin": null, "end": null, "altitudeMode": null, "tessellate": -1, "extrude": 0, "visibility": -1, "drawOrder": null, "icon": null, "nombre": "", "descripci__n": "", "CGM": "Lamadrid" }, "geometry": { "type": "Point", "coordinates": [ -58.4666596, -34.7275804, 0.0 ] } },
{ "type": "Feature", "properties": { "Name": "Tabaré 48 Y Tavano ", "description": "CGM LAMADRID<br><br>nombre: <br>descripción: ", "timestamp": null, "begin": null, "end": null, "altitudeMode": null, "tessellate": -1, "extrude": 0, "visibility": -1, "drawOrder": null, "icon": null, "nombre": "", "descripci__n": "", "CGM": "Lamadrid" }, "geometry": { "type": "Point", "coordinates": [ -58.4659447, -34.7264539, 0.0 ] } },
{ "type": "Feature", "properties": { "Name": "Metan ENTRE Homero y Tavano", "description": "CGM LAMADRID<br><br>nombre: <br>descripción: ", "timestamp": null, "begin": null, "end": null, "altitudeMode": null, "tessellate": -1, "extrude": 0, "visibility": -1, "drawOrder": null, "icon": null, "nombre": "", "descripci__n": "", "CGM": "Lamadrid" }, "geometry": { "type": "Point", "coordinates": [ -58.4689602, -34.7248538, 0.0 ] } },
{ "type": "Feature", "properties": { "Name": "Gualeguay y Newton", "description": "CGM LAMADRID<br><br>nombre: <br>descripción: ", "timestamp": null, "begin": null, "end": null, "altitudeMode": null, "tessellate": -1, "extrude": 0, "visibility": -1, "drawOrder": null, "icon": null, "nombre": "", "descripci__n": "", "CGM": "Lamadrid" }, "geometry": { "type": "Point", "coordinates": [ -58.4739244, -34.7306979, 0.0 ] } },
{ "type": "Feature", "properties": { "Name": "O´Higgins y Escobar HUNDIMIENTO ", "description": "CGM ALBERTINA<br><br>nombre: <br>descripción: ", "timestamp": null, "begin": null, "end": null, "altitudeMode": null, "tessellate": -1, "extrude": 0, "visibility": -1, "drawOrder": null, "icon": null, "nombre": "", "descripci__n": "", "CGM": "Lamadrid" }, "geometry": { "type": "Point", "coordinates": [ -58.4702615, -34.7356226, 0.0 ] } }
]
}
