{
"type": "FeatureCollection",
"name": "bacheo_2024_Lamadrid",
"crs": { "type": "name", "properties": { "name": "urn:ogc:def:crs:OGC:1.3:CRS84" } },
"features": [
{ "type": "Feature", "properties": { "Nombre": "Vucetich entre Monte y Oran", "CGM": "Lamadrid" }, "geometry": { "type": "Point", "coordinates": [ -58.4788168, -34.7281802, 0.0 ] } },
{ "type": "Feature", "properties": { "Nombre": "Campana y Lavarden", "CGM": "Lamadrid" }, "geometry": { "type": "Point", "coordinates": [ -58.4679313, -34.720623, 0.0 ] } },
{ "type": "Feature", "properties": { "Nombre": "Tabaré E/ Homero y Távano", "CGM": "Lamadrid" }, "geometry": { "type": "Point", "coordinates": [ -58.4666596, -34.7275804, 0.0 ] } },
{ "type": "Feature", "properties": { "Nombre": "Tabaré 48 Y Tavano ", "CGM": "Lamadrid" }, "geometry": { "type": "Point", "coordinates": [ -58.4659447, -34.7264539, 0.0 ] } },
{ "type": "Feature", "properties": { "Nombre": "Metan ENTRE Homero y Tavano", "CGM": "Lamadrid" }, "geometry": { "type": "Point", "coordinates": [ -58.4689602, -34.7248538, 0.0 ] } },
{ "type": "Feature", "properties": { "Nombre": "Gualeguay y Newton", "CGM": "Lamadrid" }, "geometry": { "type": "Point", "coordinates": [ -58.4739244, -34.7306979, 0.0 ] } },
{ "type": "Feature", "properties": { "Nombre": "O´Higgins y Escobar HUNDIMIENTO", "CGM": "Lamadrid" }, "geometry": { "type": "Point", "coordinates": [ -58.4702615, -34.7356226, 0.0 ] } }
]
}
