{
"type": "FeatureCollection",
"name": "bacheo_2024_Albertina",
"crs": { "type": "name", "properties": { "name": "urn:ogc:def:crs:OGC:1.3:CRS84" } },
"features": [
{ "type": "Feature", "properties": { "Name": "Ricardo Palma y Paris", "description": "CGM ALBERTINA<br><br>nombre: <br>descripción: ", "timestamp": null, "begin": null, "end": null, "altitudeMode": null, "tessellate": -1, "extrude": 0, "visibility": -1, "drawOrder": null, "icon": null, "nombre": "", "descripci__n": "", "CGM": "Albertina" }, "geometry": { "type": "Point", "coordinates": [ -58.4486651, -34.7341297, 0.0 ] } },
{ "type": "Feature", "properties": { "Name": "HUNDIMIENTO Guaminí y Napoles ", "description": "CGM ALBERTINA<br><br>nombre: <br>descripción: ", "timestamp": null, "begin": null, "end": null, "altitudeMode": null, "tessellate": -1, "extrude": 0, "visibility": -1, "drawOrder": null, "icon": null, "nombre": "", "descripci__n": "", "CGM": "Albertina" }, "geometry": { "type": "Point", "coordinates": [ -58.4450304, -34.7298575, 0.0 ] } },
{ "type": "Feature", "properties": { "Name": "Paris y Claudio de Alas ", "description": "CGM ALBERTINA<br><br>nombre: <br>descripción: ", "timestamp": null, "begin": null, "end": null, "altitudeMode": null, "tessellate": -1, "extrude": 0, "visibility": -1, "drawOrder": null, "icon": null, "nombre": "", "descripci__n": "", "CGM": "Albertina" }, "geometry": { "type": "Point", "coordinates": [ -58.4511542, -34.7354048, 0.0 ] } },
{ "type": "Feature", "properties": { "Name": "A.Machado y Paris", "description": "CGM ALBERTINA<br><br>nombre: <br>descripción: ", "timestamp": null, "begin": null, "end": null, "altitudeMode": null, "tessellate": -1, "extrude": 0, "visibility": -1, "drawOrder": null, "icon": null, "nombre": "", "descripci__n": "", "CGM": "Albertina" }, "geometry": { "type": "Point", "coordinates": [ -58.4499124, -34.734763, 0.0 ] } },
{ "type": "Feature", "properties": { "Name": "HUNDIMENTO Carriego y Rodriguez", "description": "CGM ALBERTINA<br><br>nombre: <br>descripción: ", "timestamp": null, "begin": null, "end": null, "altitudeMode": null, "tessellate": -1, "extrude": 0, "visibility": -1, "drawOrder": null, "icon": null, "nombre": "", "descripci__n": "", "CGM": "Albertina" }, "geometry": { "type": "Point", "coordinates": [ -58.4471472, -34.7428319, 0.0 ] } },
{ "type": "Feature", "properties": { "Name": "Andrés Bello y Ostende", "description": "CGM ALBERTINA<br><br>nombre: <br>descripción: ", "timestamp": null, "begin": null, "end": null, "altitudeMode": null, "tessellate": -1, "extrude": 0, "visibility": -1, "drawOrder": null, "icon": null, "nombre": "", "descripci__n": "", "CGM": "Albertina" }, "geometry": { "type": "Point", "coordinates": [ -58.4567645, -34.7326491, 0.0 ] } },
{ "type": "Feature", "properties": { "Name": "HUNDIMIENTO Paris ENTRE Andrés Bello y Lavarden ", "description": "CGM ALBERTINA<br><br>nombre: <br>descripción: ", "timestamp": null, "begin": null, "end": null, "altitudeMode": null, "tessellate": -1, "extrude": 0, "visibility": -1, "drawOrder": null, "icon": null, "nombre": "", "descripci__n": "", "CGM": "Albertina" }, "geometry": { "type": "Point", "coordinates": [ -58.4542645, -34.7370298, 0.0 ] } },
{ "type": "Feature", "properties": { "Name": "Juan. D. Perón y Barcelona", "description": "CGM ALBERTINA<br><br>nombre: <br>descripción: ", "timestamp": null, "begin": null, "end": null, "altitudeMode": null, "tessellate": -1, "extrude": 0, "visibility": -1, "drawOrder": null, "icon": null, "nombre": "", "descripci__n": "", "CGM": "Albertina" }, "geometry": { "type": "Point", "coordinates": [ -58.439173, -34.7306642, 0.0 ] } },
{ "type": "Feature", "properties": { "Name": "GuamIní y Ginebra", "description": "CGM ALBERTINA<br><br>nombre: <br>descripción: ", "timestamp": null, "begin": null, "end": null, "altitudeMode": null, "tessellate": -1, "extrude": 0, "visibility": -1, "drawOrder": null, "icon": null, "nombre": "", "descripci__n": "", "CGM": "Albertina" }, "geometry": { "type": "Point", "coordinates": [ -58.4481356, -34.7257507, 0.0 ] } },
{ "type": "Feature", "properties": { "Name": "Cosquín y Bolonia", "description": "CGM ALBERTINA<br><br>nombre: <br>descripción: ", "timestamp": null, "begin": null, "end": null, "altitudeMode": null, "tessellate": -1, "extrude": 0, "visibility": -1, "drawOrder": null, "icon": null, "nombre": "", "descripci__n": "", "CGM": "Albertina" }, "geometry": { "type": "Point", "coordinates": [ -58.4431229, -34.727847, 0.0 ] } },
{ "type": "Feature", "properties": { "Name": "Campoamor y La Haya", "description": "CGM ALBERTINA<br><br>nombre: <br>descripción: ", "timestamp": null, "begin": null, "end": null, "altitudeMode": null, "tessellate": -1, "extrude": 0, "visibility": -1, "drawOrder": null, "icon": null, "nombre": "", "descripci__n": "", "CGM": "Albertina" }, "geometry": { "type": "Point", "coordinates": [ -58.4460253, -34.7262944, 0.0 ] } }
]
}
