{
"type": "FeatureCollection",
"name": "centro_de_jubilados_Banfield",
"crs": { "type": "name", "properties": { "name": "urn:ogc:def:crs:OGC:1.3:CRS84" } },
"features": [
{ "type": "Feature", "properties": { "CGM": "Banfield", "NOMBRE": "Centro De Jubilados Y Pensionados Renacer De Banfield", "TIPO": "CENTRO DE JUBILADOS Y PENSIONADOS", "Fecha Vencimiento Reconocimiento": "2026-12-21T00:00:00", "LATITUD": -34.74947424, "LONGITUD": -58.37985195 }, "geometry": { "type": "Point", "coordinates": [ -58.37985195, -34.74947424 ] } },
{ "type": "Feature", "properties": { "CGM": "Banfield", "NOMBRE": "Centro De Jubilados Y Pensionados La Esperanza", "TIPO": "CENTRO DE JUBILADOS Y PENSIONADOS", "Fecha Vencimiento Reconocimiento": "2026-12-21T00:00:00", "LATITUD": -34.74334951, "LONGITUD": -58.37242447 }, "geometry": { "type": "Point", "coordinates": [ -58.37242447, -34.74334951 ] } },
{ "type": "Feature", "properties": { "CGM": "Banfield", "NOMBRE": "Centro De Jubilados Y Pensionados  Casa Bienestar", "TIPO": "CENTRO DE JUBILADOS Y PENSIONADOS", "Fecha Vencimiento Reconocimiento": "2026-12-21T00:00:00", "LATITUD": -34.73994685, "LONGITUD": -58.38782745 }, "geometry": { "type": "Point", "coordinates": [ -58.38782745, -34.73994685 ] } },
{ "type": "Feature", "properties": { "CGM": "Banfield", "NOMBRE": "Centro De Jubilados Y Pensionados Suenos De Amigos", "TIPO": "CENTRO DE JUBILADOS Y PENSIONADOS", "Fecha Vencimiento Reconocimiento": "2026-12-21T00:00:00", "LATITUD": -34.7371764, "LONGITUD": -58.38478764 }, "geometry": { "type": "Point", "coordinates": [ -58.38478764, -34.7371764 ] } },
{ "type": "Feature", "properties": { "CGM": "Banfield", "NOMBRE": "Centro De Jubilados 21 De Septiembre Atsa Zona Sur", "TIPO": "CENTRO DE JUBILADOS Y PENSIONADOS", "Fecha Vencimiento Reconocimiento": "2026-12-21T00:00:00", "LATITUD": -34.73783209, "LONGITUD": -58.39744432 }, "geometry": { "type": "Point", "coordinates": [ -58.39744432, -34.73783209 ] } },
{ "type": "Feature", "properties": { "CGM": "Banfield", "NOMBRE": "Centro De Jubilados Y Pensionados Progreso E   Independencia", "TIPO": "CENTRO DE JUBILADOS Y PENSIONADOS", "Fecha Vencimiento Reconocimiento": "2026-12-21T00:00:00", "LATITUD": -34.753548, "LONGITUD": -58.374386 }, "geometry": { "type": "Point", "coordinates": [ -58.374386, -34.753548 ] } },
{ "type": "Feature", "properties": { "CGM": "Banfield", "NOMBRE": "Centro De Jubilados Y Pensionados Banfield", "TIPO": "CENTRO DE JUBILADOS Y PENSIONADOS", "Fecha Vencimiento Reconocimiento": "2026-12-21T00:00:00", "LATITUD": -34.748653, "LONGITUD": -58.390354 }, "geometry": { "type": "Point", "coordinates": [ -58.390354, -34.748653 ] } },
{ "type": "Feature", "properties": { "CGM": "Banfield", "NOMBRE": "Centro De Jubilados Y Pensionados La Nueva Casa", "TIPO": "CENTRO DE JUBILADOS Y PENSIONADOS", "Fecha Vencimiento Reconocimiento": "2026-12-21T00:00:00", "LATITUD": -34.740027, "LONGITUD": -58.407483 }, "geometry": { "type": "Point", "coordinates": [ -58.407483, -34.740027 ] } },
{ "type": "Feature", "properties": { "CGM": "Banfield", "NOMBRE": "Centro De Jubilados Y Pensionados 25 De Julio", "TIPO": "CENTRO DE JUBILADOS Y PENSIONADOS", "Fecha Vencimiento Reconocimiento": "2026-12-21T00:00:00", "LATITUD": -34.736655, "LONGITUD": -58.419279 }, "geometry": { "type": "Point", "coordinates": [ -58.419279, -34.736655 ] } },
{ "type": "Feature", "properties": { "CGM": "Banfield", "NOMBRE": "Centro De Jubilados Y Pensionados Banfield Oeste", "TIPO": "CENTRO DE JUBILADOS Y PENSIONADOS", "Fecha Vencimiento Reconocimiento": "2026-12-21T00:00:00", "LATITUD": -34.74526, "LONGITUD": -58.408408 }, "geometry": { "type": "Point", "coordinates": [ -58.408408, -34.74526 ] } }
]
}
