{
"type": "FeatureCollection",
"name": "Clubes_deportivos_Santa Catalina",
"crs": { "type": "name", "properties": { "name": "urn:ogc:def:crs:OGC:1.3:CRS84" } },
"features": [
{ "type": "Feature", "properties": { "CGM": "Santa Catalina", "NOMBRE": "Club Atletico Puya Raimundi", "TIPO": "CLUBES DEPORTIVOS", "Fecha Vencimiento Reconocimiento": "2026-03-19T00:00:00", "LATITUD": -34.74959046, "LONGITUD": -58.46281469 }, "geometry": { "type": "Point", "coordinates": [ -58.46281469, -34.74959046 ] } },
{ "type": "Feature", "properties": { "CGM": "Santa Catalina", "NOMBRE": "Club Social Deportivo Y Cultural Los Chicos De La Colchonera", "TIPO": "CLUBES DEPORTIVOS", "Fecha Vencimiento Reconocimiento": "2026-03-19T00:00:00", "LATITUD": -34.74198594, "LONGITUD": -58.48303776 }, "geometry": { "type": "Point", "coordinates": [ -58.48303776, -34.74198594 ] } },
{ "type": "Feature", "properties": { "CGM": "Santa Catalina", "NOMBRE": "Club De Madres Inter De Lomas De Zamora", "TIPO": "CLUBES DEPORTIVOS", "Fecha Vencimiento Reconocimiento": "2026-12-21T00:00:00", "LATITUD": -34.74444264, "LONGITUD": -58.48460028 }, "geometry": { "type": "Point", "coordinates": [ -58.48460028, -34.74444264 ] } },
{ "type": "Feature", "properties": { "CGM": "Santa Catalina", "NOMBRE": "Club Social Deportivo Santa Catalina 3 Y Fines", "TIPO": "CLUBES DEPORTIVOS", "Fecha Vencimiento Reconocimiento": "2026-12-21T00:00:00", "LATITUD": -34.75364142, "LONGITUD": -58.47291624 }, "geometry": { "type": "Point", "coordinates": [ -58.47291624, -34.75364142 ] } },
{ "type": "Feature", "properties": { "CGM": "Santa Catalina", "NOMBRE": "Asociacion Civil Los Guardianes De Homero Manzi", "TIPO": "CLUBES DEPORTIVOS", "Fecha Vencimiento Reconocimiento": "2026-12-21T00:00:00", "LATITUD": -34.73576231, "LONGITUD": -58.47372888 }, "geometry": { "type": "Point", "coordinates": [ -58.47372888, -34.73576231 ] } },
{ "type": "Feature", "properties": { "CGM": "Santa Catalina", "NOMBRE": "Club Social Cultural Y Deportivo Rincon", "TIPO": "CLUBES DEPORTIVOS", "Fecha Vencimiento Reconocimiento": "2026-12-21T00:00:00", "LATITUD": -34.736388, "LONGITUD": -58.481592 }, "geometry": { "type": "Point", "coordinates": [ -58.481592, -34.736388 ] } },
{ "type": "Feature", "properties": { "CGM": "Santa Catalina", "NOMBRE": "Centro Cultural Deportivo El Cardenal", "TIPO": "CLUBES DEPORTIVOS", "Fecha Vencimiento Reconocimiento": "2026-12-21T00:00:00", "LATITUD": -34.73597, "LONGITUD": -58.473729 }, "geometry": { "type": "Point", "coordinates": [ -58.473729, -34.73597 ] } },
{ "type": "Feature", "properties": { "CGM": "Santa Catalina", "NOMBRE": "Club 30 De Agosto", "TIPO": "CLUBES DEPORTIVOS", "Fecha Vencimiento Reconocimiento": "2026-12-21T00:00:00", "LATITUD": -34.73684082, "LONGITUD": -58.48853259 }, "geometry": { "type": "Point", "coordinates": [ -58.48853259, -34.73684082 ] } },
{ "type": "Feature", "properties": { "CGM": "Santa Catalina", "NOMBRE": "Club Deportivo Defensores De Nuñez", "TIPO": "CLUBES DEPORTIVOS", "Fecha Vencimiento Reconocimiento": "2026-12-21T00:00:00", "LATITUD": -34.7349894, "LONGITUD": -58.4883718 }, "geometry": { "type": "Point", "coordinates": [ -58.4883718, -34.7349894 ] } },
{ "type": "Feature", "properties": { "CGM": "Santa Catalina", "NOMBRE": "Club Social Deportivo Juan Domingo Peron Y Fines", "TIPO": "CLUBES DEPORTIVOS", "Fecha Vencimiento Reconocimiento": "2026-12-21T00:00:00", "LATITUD": -34.73639022, "LONGITUD": -58.49010205 }, "geometry": { "type": "Point", "coordinates": [ -58.49010205, -34.73639022 ] } },
{ "type": "Feature", "properties": { "CGM": "Santa Catalina", "NOMBRE": "Club Social Y Deportivo El Obrero ", "TIPO": "CLUBES DEPORTIVOS", "Fecha Vencimiento Reconocimiento": "2026-12-21T00:00:00", "LATITUD": -34.74835823, "LONGITUD": -58.46534798 }, "geometry": { "type": "Point", "coordinates": [ -58.46534798, -34.74835823 ] } },
{ "type": "Feature", "properties": { "CGM": "Santa Catalina", "NOMBRE": "Club Social Y Deportivo La Diagonal ", "TIPO": "CLUBES DEPORTIVOS", "Fecha Vencimiento Reconocimiento": "2026-12-21T00:00:00", "LATITUD": -34.7396798, "LONGITUD": -58.4853328 }, "geometry": { "type": "Point", "coordinates": [ -58.4853328, -34.7396798 ] } },
{ "type": "Feature", "properties": { "CGM": "Santa Catalina", "NOMBRE": "Club Social Y Deportivo La Yupanki", "TIPO": "CLUBES DEPORTIVOS", "Fecha Vencimiento Reconocimiento": "2026-12-21T00:00:00", "LATITUD": -34.74490851, "LONGITUD": -58.47668435 }, "geometry": { "type": "Point", "coordinates": [ -58.47668435, -34.74490851 ] } },
{ "type": "Feature", "properties": { "CGM": "Santa Catalina", "NOMBRE": "Club Social Y Deportivo Mariscal Sucre", "TIPO": "CLUBES DEPORTIVOS", "Fecha Vencimiento Reconocimiento": "2026-12-21T00:00:00", "LATITUD": -34.74555467, "LONGITUD": -58.46430838 }, "geometry": { "type": "Point", "coordinates": [ -58.46430838, -34.74555467 ] } },
{ "type": "Feature", "properties": { "CGM": "Santa Catalina", "NOMBRE": "Club Social Y Deportivo Toti", "TIPO": "CLUBES DEPORTIVOS", "Fecha Vencimiento Reconocimiento": "2026-12-21T00:00:00", "LATITUD": -34.75389139, "LONGITUD": -58.46899279 }, "geometry": { "type": "Point", "coordinates": [ -58.46899279, -34.75389139 ] } },
{ "type": "Feature", "properties": { "CGM": "Santa Catalina", "NOMBRE": "Genesis Fc", "TIPO": "CLUBES DEPORTIVOS", "Fecha Vencimiento Reconocimiento": "2026-12-21T00:00:00", "LATITUD": -34.73434792, "LONGITUD": -58.48506309 }, "geometry": { "type": "Point", "coordinates": [ -58.48506309, -34.73434792 ] } },
{ "type": "Feature", "properties": { "CGM": "Santa Catalina", "NOMBRE": "Los Chakes", "TIPO": "CLUBES DEPORTIVOS", "Fecha Vencimiento Reconocimiento": "2026-12-21T00:00:00", "LATITUD": -34.74576021, "LONGITUD": -58.46868748 }, "geometry": { "type": "Point", "coordinates": [ -58.46868748, -34.74576021 ] } },
{ "type": "Feature", "properties": { "CGM": "Santa Catalina", "NOMBRE": "Los Petakos", "TIPO": "CLUBES DEPORTIVOS", "Fecha Vencimiento Reconocimiento": "2026-12-21T00:00:00", "LATITUD": -34.74696034, "LONGITUD": -58.48252063 }, "geometry": { "type": "Point", "coordinates": [ -58.48252063, -34.74696034 ] } }
]
}
