{
"type": "FeatureCollection",
"name": "Clubes_deportivos_Santa Marta",
"crs": { "type": "name", "properties": { "name": "urn:ogc:def:crs:OGC:1.3:CRS84" } },
"features": [
{ "type": "Feature", "properties": { "CGM": "Santa Marta", "NOMBRE": "Club Social Y Deportivo America Del Sur", "TIPO": "CLUBES DEPORTIVOS", "Fecha Vencimiento Reconocimiento": "2026-12-21T00:00:00", "LATITUD": -34.7519055, "LONGITUD": -58.44342337 }, "geometry": { "type": "Point", "coordinates": [ -58.44342337, -34.7519055 ] } },
{ "type": "Feature", "properties": { "CGM": "Santa Marta", "NOMBRE": "Club Social  Deportivo Y Cultural La Loma Edulfo Herrera Benitez", "TIPO": "CLUBES DEPORTIVOS", "Fecha Vencimiento Reconocimiento": "2026-12-21T00:00:00", "LATITUD": -34.75137512, "LONGITUD": -58.44367182 }, "geometry": { "type": "Point", "coordinates": [ -58.44367182, -34.75137512 ] } },
{ "type": "Feature", "properties": { "CGM": "Santa Marta", "NOMBRE": "Centro Cultural Social Y Deportivo General Las Heras", "TIPO": "CLUBES DEPORTIVOS", "Fecha Vencimiento Reconocimiento": "2026-12-21T00:00:00", "LATITUD": -34.7466621, "LONGITUD": -58.43741094 }, "geometry": { "type": "Point", "coordinates": [ -58.43741094, -34.7466621 ] } },
{ "type": "Feature", "properties": { "CGM": "Santa Marta", "NOMBRE": "Club Social Deportivo Y Cultural Sol De Mayo", "TIPO": "CLUBES DEPORTIVOS", "Fecha Vencimiento Reconocimiento": "2026-12-21T00:00:00", "LATITUD": -34.74257331, "LONGITUD": -58.44129759 }, "geometry": { "type": "Point", "coordinates": [ -58.44129759, -34.74257331 ] } },
{ "type": "Feature", "properties": { "CGM": "Santa Marta", "NOMBRE": "Asociacion Civil Centro Cultural Social Y Deportivo V Rita De Lomas", "TIPO": "CLUBES DEPORTIVOS", "Fecha Vencimiento Reconocimiento": "2026-12-21T00:00:00", "LATITUD": -34.7473653, "LONGITUD": -58.43157863 }, "geometry": { "type": "Point", "coordinates": [ -58.43157863, -34.7473653 ] } },
{ "type": "Feature", "properties": { "CGM": "Santa Marta", "NOMBRE": "Asociacion Civil Social Cultural Y Deportiva Edfel Lomas", "TIPO": "CLUBES DEPORTIVOS", "Fecha Vencimiento Reconocimiento": "2026-12-21T00:00:00", "LATITUD": -34.750636, "LONGITUD": -58.454729 }, "geometry": { "type": "Point", "coordinates": [ -58.454729, -34.750636 ] } },
{ "type": "Feature", "properties": { "CGM": "Santa Marta", "NOMBRE": "Futbol Infantil El Progreso", "TIPO": "CLUBES DEPORTIVOS", "Fecha Vencimiento Reconocimiento": "2026-12-21T00:00:00", "LATITUD": -34.750394, "LONGITUD": -58.441252 }, "geometry": { "type": "Point", "coordinates": [ -58.441252, -34.750394 ] } },
{ "type": "Feature", "properties": { "CGM": "Santa Marta", "NOMBRE": "Club Nacional Y Popular Deportivo Social", "TIPO": "CLUBES DEPORTIVOS", "Fecha Vencimiento Reconocimiento": "2026-12-21T00:00:00", "LATITUD": -34.747707, "LONGITUD": -58.455737 }, "geometry": { "type": "Point", "coordinates": [ -58.455737, -34.747707 ] } },
{ "type": "Feature", "properties": { "CGM": "Santa Marta", "NOMBRE": "Sociedad De Fomento El Faro", "TIPO": "CLUBES DEPORTIVOS", "Fecha Vencimiento Reconocimiento": "2026-12-21T00:00:00", "LATITUD": -34.745579, "LONGITUD": -58.441733 }, "geometry": { "type": "Point", "coordinates": [ -58.441733, -34.745579 ] } },
{ "type": "Feature", "properties": { "CGM": "Santa Marta", "NOMBRE": "Club La Loma", "TIPO": "CLUBES DEPORTIVOS", "Fecha Vencimiento Reconocimiento": "2026-12-21T00:00:00", "LATITUD": -34.744388, "LONGITUD": -58.42988 }, "geometry": { "type": "Point", "coordinates": [ -58.42988, -34.744388 ] } },
{ "type": "Feature", "properties": { "CGM": "Santa Marta", "NOMBRE": "Centro Cultural Y Social Deportivo El Camino Del Dragon", "TIPO": "CLUBES DEPORTIVOS", "Fecha Vencimiento Reconocimiento": "2026-12-21T00:00:00", "LATITUD": -34.743521, "LONGITUD": -58.439436 }, "geometry": { "type": "Point", "coordinates": [ -58.439436, -34.743521 ] } },
{ "type": "Feature", "properties": { "CGM": "Santa Marta", "NOMBRE": "Club Social Y Deportivo 11 De Septiembre", "TIPO": "CLUBES DEPORTIVOS", "Fecha Vencimiento Reconocimiento": "2026-12-21T00:00:00", "LATITUD": -34.743109, "LONGITUD": -58.441486 }, "geometry": { "type": "Point", "coordinates": [ -58.441486, -34.743109 ] } },
{ "type": "Feature", "properties": { "CGM": "Santa Marta", "NOMBRE": "Club Social Las Heras", "TIPO": "CLUBES DEPORTIVOS", "Fecha Vencimiento Reconocimiento": "2026-12-21T00:00:00", "LATITUD": -34.742388, "LONGITUD": -58.442541 }, "geometry": { "type": "Point", "coordinates": [ -58.442541, -34.742388 ] } },
{ "type": "Feature", "properties": { "CGM": "Santa Marta", "NOMBRE": "Club Social Y Deportivo 17 De Noviembre", "TIPO": "CLUBES DEPORTIVOS", "Fecha Vencimiento Reconocimiento": "2026-12-21T00:00:00", "LATITUD": -34.741806, "LONGITUD": -58.436442 }, "geometry": { "type": "Point", "coordinates": [ -58.436442, -34.741806 ] } },
{ "type": "Feature", "properties": { "CGM": "Santa Marta", "NOMBRE": "Asociacion De Futbol Infantil El Bosque", "TIPO": "CLUBES DEPORTIVOS", "Fecha Vencimiento Reconocimiento": "2026-12-21T00:00:00", "LATITUD": -34.740203, "LONGITUD": -58.440135 }, "geometry": { "type": "Point", "coordinates": [ -58.440135, -34.740203 ] } },
{ "type": "Feature", "properties": { "CGM": "Santa Marta", "NOMBRE": "Club Social Y Deportivo San Martin Del Progreso", "TIPO": "CLUBES DEPORTIVOS", "Fecha Vencimiento Reconocimiento": "2026-12-21T00:00:00", "LATITUD": -34.7516, "LONGITUD": -58.443539 }, "geometry": { "type": "Point", "coordinates": [ -58.443539, -34.7516 ] } },
{ "type": "Feature", "properties": { "CGM": "Santa Marta", "NOMBRE": "Club El Progreso", "TIPO": "CLUBES DEPORTIVOS", "Fecha Vencimiento Reconocimiento": "2026-12-21T00:00:00", "LATITUD": -34.75149319, "LONGITUD": -58.44373338 }, "geometry": { "type": "Point", "coordinates": [ -58.44373338, -34.75149319 ] } },
{ "type": "Feature", "properties": { "CGM": "Santa Marta", "NOMBRE": "Club Social Y Deportivo Chicago", "TIPO": "CLUBES DEPORTIVOS", "Fecha Vencimiento Reconocimiento": "2026-12-21T00:00:00", "LATITUD": -34.74284869, "LONGITUD": -58.44104865 }, "geometry": { "type": "Point", "coordinates": [ -58.44104865, -34.74284869 ] } },
{ "type": "Feature", "properties": { "CGM": "Santa Marta", "NOMBRE": "Olmos Futbol Club ", "TIPO": "CLUBES DEPORTIVOS", "Fecha Vencimiento Reconocimiento": "2026-12-21T00:00:00", "LATITUD": -34.74569794, "LONGITUD": -58.45245319 }, "geometry": { "type": "Point", "coordinates": [ -58.45245319, -34.74569794 ] } }
]
}
