{
"type": "FeatureCollection",
"name": "Clubes_deportivos_Banfield",
"crs": { "type": "name", "properties": { "name": "urn:ogc:def:crs:OGC:1.3:CRS84" } },
"features": [
{ "type": "Feature", "properties": { "CGM": "Banfield", "NOMBRE": "Club Atletico Banfield", "TIPO": "CLUBES DEPORTIVOS", "Fecha Vencimiento Reconocimiento": "2026-12-21T00:00:00", "LATITUD": -34.74127468, "LONGITUD": -58.39405488 }, "geometry": { "type": "Point", "coordinates": [ -58.39405488, -34.74127468 ] } },
{ "type": "Feature", "properties": { "CGM": "Banfield", "NOMBRE": "Country Club Infantil De Banfield", "TIPO": "CLUBES DEPORTIVOS", "Fecha Vencimiento Reconocimiento": "2026-12-21T00:00:00", "LATITUD": -34.74022241, "LONGITUD": -58.39043553 }, "geometry": { "type": "Point", "coordinates": [ -58.39043553, -34.74022241 ] } },
{ "type": "Feature", "properties": { "CGM": "Banfield", "NOMBRE": "Gazcon Lawn Tennis Club", "TIPO": "CLUBES DEPORTIVOS", "Fecha Vencimiento Reconocimiento": "2026-12-21T00:00:00", "LATITUD": -34.74360298, "LONGITUD": -58.40425104 }, "geometry": { "type": "Point", "coordinates": [ -58.40425104, -34.74360298 ] } },
{ "type": "Feature", "properties": { "CGM": "Banfield", "NOMBRE": "Union Nacional De Clubes De Barrio Filial Lomas De Zamora", "TIPO": "CLUBES DEPORTIVOS", "Fecha Vencimiento Reconocimiento": "2026-12-21T00:00:00", "LATITUD": -34.752923, "LONGITUD": -58.372845 }, "geometry": { "type": "Point", "coordinates": [ -58.372845, -34.752923 ] } },
{ "type": "Feature", "properties": { "CGM": "Banfield", "NOMBRE": "Cludias", "TIPO": "CLUBES DEPORTIVOS", "Fecha Vencimiento Reconocimiento": "2026-12-21T00:00:00", "LATITUD": -34.743004, "LONGITUD": -58.382908 }, "geometry": { "type": "Point", "coordinates": [ -58.382908, -34.743004 ] } },
{ "type": "Feature", "properties": { "CGM": "Banfield", "NOMBRE": "Club Social Buchardo", "TIPO": "CLUBES DEPORTIVOS", "Fecha Vencimiento Reconocimiento": "2026-12-21T00:00:00", "LATITUD": -34.742617, "LONGITUD": -58.393313 }, "geometry": { "type": "Point", "coordinates": [ -58.393313, -34.742617 ] } },
{ "type": "Feature", "properties": { "CGM": "Banfield", "NOMBRE": "Club De Pesca Y Caza Banfield", "TIPO": "CLUBES DEPORTIVOS", "Fecha Vencimiento Reconocimiento": "2026-12-21T00:00:00", "LATITUD": -34.742484, "LONGITUD": -58.393333 }, "geometry": { "type": "Point", "coordinates": [ -58.393333, -34.742484 ] } },
{ "type": "Feature", "properties": { "CGM": "Banfield", "NOMBRE": "Club Social Y Deportivo Defensores De Banfield", "TIPO": "CLUBES DEPORTIVOS", "Fecha Vencimiento Reconocimiento": "2026-12-21T00:00:00", "LATITUD": -34.740165, "LONGITUD": -58.407236 }, "geometry": { "type": "Point", "coordinates": [ -58.407236, -34.740165 ] } },
{ "type": "Feature", "properties": { "CGM": "Banfield", "NOMBRE": "Mil Flores Hockey Social", "TIPO": "CLUBES DEPORTIVOS", "Fecha Vencimiento Reconocimiento": "2026-12-21T00:00:00", "LATITUD": -34.739843, "LONGITUD": -58.398679 }, "geometry": { "type": "Point", "coordinates": [ -58.398679, -34.739843 ] } },
{ "type": "Feature", "properties": { "CGM": "Banfield", "NOMBRE": "Circulo Social Y Cultural Italiano Michelangelo", "TIPO": "CLUBES DEPORTIVOS", "Fecha Vencimiento Reconocimiento": "2026-12-21T00:00:00", "LATITUD": -34.735309, "LONGITUD": -58.408107 }, "geometry": { "type": "Point", "coordinates": [ -58.408107, -34.735309 ] } },
{ "type": "Feature", "properties": { "CGM": "Banfield", "NOMBRE": "Club Social Y Deportivo Los Piedras", "TIPO": "CLUBES DEPORTIVOS", "Fecha Vencimiento Reconocimiento": "2026-12-21T00:00:00", "LATITUD": -34.74232, "LONGITUD": -58.424816 }, "geometry": { "type": "Point", "coordinates": [ -58.424816, -34.74232 ] } },
{ "type": "Feature", "properties": { "CGM": "Banfield", "NOMBRE": "Las Brisas", "TIPO": "CLUBES DEPORTIVOS", "Fecha Vencimiento Reconocimiento": "2026-12-21T00:00:00", "LATITUD": -34.7548, "LONGITUD": -58.374253 }, "geometry": { "type": "Point", "coordinates": [ -58.374253, -34.7548 ] } },
{ "type": "Feature", "properties": { "CGM": "Banfield", "NOMBRE": "Club Social Y Deportivo Las Piedras", "TIPO": "CLUBES DEPORTIVOS", "Fecha Vencimiento Reconocimiento": "2026-12-21T00:00:00", "LATITUD": -34.74231627, "LONGITUD": -58.42483879 }, "geometry": { "type": "Point", "coordinates": [ -58.42483879, -34.74231627 ] } }
]
}
