{
"type": "FeatureCollection",
"name": "Comedores_Albertina",
"crs": { "type": "name", "properties": { "name": "urn:ogc:def:crs:OGC:1.3:CRS84" } },
"features": [
{ "type": "Feature", "properties": { "CGM": "Albertina", "NOMBRE": "Comedor Vecinal Todo Corazon", "TIPO": "COMEDORES", "Fecha Vencimiento Reconocimiento": "2026-12-21T00:00:00", "LATITUD": -34.72497154, "LONGITUD": -58.44639524 }, "geometry": { "type": "Point", "coordinates": [ -58.44639524, -34.72497154 ] } },
{ "type": "Feature", "properties": { "CGM": "Albertina", "NOMBRE": "Merendero Corazones Del Sector 8", "TIPO": "COMEDORES", "Fecha Vencimiento Reconocimiento": "2026-12-21T00:00:00", "LATITUD": -34.74374741, "LONGITUD": -58.45009491 }, "geometry": { "type": "Point", "coordinates": [ -58.45009491, -34.74374741 ] } },
{ "type": "Feature", "properties": { "CGM": "Albertina", "NOMBRE": "Comedor Y Casa Cultural Jorge Martin Orellana", "TIPO": "COMEDORES", "Fecha Vencimiento Reconocimiento": "2026-12-21T00:00:00", "LATITUD": -34.73025251, "LONGITUD": -58.44807112 }, "geometry": { "type": "Point", "coordinates": [ -58.44807112, -34.73025251 ] } },
{ "type": "Feature", "properties": { "CGM": "Albertina", "NOMBRE": "Comedor Comunitario La Fe Y La Esperanza", "TIPO": "COMEDORES", "Fecha Vencimiento Reconocimiento": "2026-12-21T00:00:00", "LATITUD": -34.72976413, "LONGITUD": -58.44874345 }, "geometry": { "type": "Point", "coordinates": [ -58.44874345, -34.72976413 ] } },
{ "type": "Feature", "properties": { "CGM": "Albertina", "NOMBRE": "Comedor Merendero Angeles Felices", "TIPO": "COMEDORES", "Fecha Vencimiento Reconocimiento": "2026-12-21T00:00:00", "LATITUD": -34.72582577, "LONGITUD": -58.4446385 }, "geometry": { "type": "Point", "coordinates": [ -58.4446385, -34.72582577 ] } },
{ "type": "Feature", "properties": { "CGM": "Albertina", "NOMBRE": "Comedor Un Lugar Perfecto", "TIPO": "COMEDORES", "Fecha Vencimiento Reconocimiento": "2026-12-21T00:00:00", "LATITUD": -34.745467, "LONGITUD": -58.458734 }, "geometry": { "type": "Point", "coordinates": [ -58.458734, -34.745467 ] } },
{ "type": "Feature", "properties": { "CGM": "Albertina", "NOMBRE": "Apoyo Escolar Y Merendero Los Fantasmas De Villa Albertina", "TIPO": "COMEDORES", "Fecha Vencimiento Reconocimiento": "2026-12-21T00:00:00", "LATITUD": -34.742046, "LONGITUD": -58.465252 }, "geometry": { "type": "Point", "coordinates": [ -58.465252, -34.742046 ] } },
{ "type": "Feature", "properties": { "CGM": "Albertina", "NOMBRE": "Merendero Rayito De Sol", "TIPO": "COMEDORES", "Fecha Vencimiento Reconocimiento": "2026-12-21T00:00:00", "LATITUD": -34.739192, "LONGITUD": -58.447174 }, "geometry": { "type": "Point", "coordinates": [ -58.447174, -34.739192 ] } },
{ "type": "Feature", "properties": { "CGM": "Albertina", "NOMBRE": "Comedor Nuñez", "TIPO": "COMEDORES", "Fecha Vencimiento Reconocimiento": "2026-12-21T00:00:00", "LATITUD": -34.738157, "LONGITUD": -58.440783 }, "geometry": { "type": "Point", "coordinates": [ -58.440783, -34.738157 ] } },
{ "type": "Feature", "properties": { "CGM": "Albertina", "NOMBRE": "Merendero Nuestros Niños De Rawson", "TIPO": "COMEDORES", "Fecha Vencimiento Reconocimiento": "2026-12-21T00:00:00", "LATITUD": -34.736376, "LONGITUD": -58.441042 }, "geometry": { "type": "Point", "coordinates": [ -58.441042, -34.736376 ] } },
{ "type": "Feature", "properties": { "CGM": "Albertina", "NOMBRE": "Comedor Manitos Limpias", "TIPO": "COMEDORES", "Fecha Vencimiento Reconocimiento": "2026-12-21T00:00:00", "LATITUD": -34.735616, "LONGITUD": -58.465745 }, "geometry": { "type": "Point", "coordinates": [ -58.465745, -34.735616 ] } },
{ "type": "Feature", "properties": { "CGM": "Albertina", "NOMBRE": "Merendero Rosa", "TIPO": "COMEDORES", "Fecha Vencimiento Reconocimiento": "2026-12-21T00:00:00", "LATITUD": -34.735602, "LONGITUD": -58.437361 }, "geometry": { "type": "Point", "coordinates": [ -58.437361, -34.735602 ] } },
{ "type": "Feature", "properties": { "CGM": "Albertina", "NOMBRE": "Merendero Y Comedor Dar", "TIPO": "COMEDORES", "Fecha Vencimiento Reconocimiento": "2026-12-21T00:00:00", "LATITUD": -34.732442, "LONGITUD": -58.445658 }, "geometry": { "type": "Point", "coordinates": [ -58.445658, -34.732442 ] } },
{ "type": "Feature", "properties": { "CGM": "Albertina", "NOMBRE": "Comedor Y Merendero Lizjuanfer", "TIPO": "COMEDORES", "Fecha Vencimiento Reconocimiento": "2026-12-21T00:00:00", "LATITUD": -34.729269, "LONGITUD": -58.454819 }, "geometry": { "type": "Point", "coordinates": [ -58.454819, -34.729269 ] } },
{ "type": "Feature", "properties": { "CGM": "Albertina", "NOMBRE": "Comedor Todo Corazon", "TIPO": "COMEDORES", "Fecha Vencimiento Reconocimiento": "2026-12-21T00:00:00", "LATITUD": -34.74517, "LONGITUD": -58.458858 }, "geometry": { "type": "Point", "coordinates": [ -58.458858, -34.74517 ] } },
{ "type": "Feature", "properties": { "CGM": "Albertina", "NOMBRE": "Merendero Dulce Hogar", "TIPO": "COMEDORES", "Fecha Vencimiento Reconocimiento": "2026-12-21T00:00:00", "LATITUD": -34.72493, "LONGITUD": -58.446184 }, "geometry": { "type": "Point", "coordinates": [ -58.446184, -34.72493 ] } }
]
}
