{
"type": "FeatureCollection",
"name": "iglesias_Llavallol",
"crs": { "type": "name", "properties": { "name": "urn:ogc:def:crs:OGC:1.3:CRS84" } },
"features": [
{ "type": "Feature", "properties": { "CGM": "Llavallol", "NOMBRE": "Asociacion Civil Siervas De Maria De Anglet", "TIPO": "IGLESIAS", "Fecha Vencimiento Reconocimiento": "2026-12-21T00:00:00", "LATITUD": -34.790049, "LONGITUD": -58.428408 }, "geometry": { "type": "Point", "coordinates": [ -58.428408, -34.790049 ] } },
{ "type": "Feature", "properties": { "CGM": "Llavallol", "NOMBRE": "Asociacion De Las Iglesias De Los Cristianos De La Fe Evangelica", "TIPO": "IGLESIAS", "Fecha Vencimiento Reconocimiento": "2026-12-21T00:00:00", "LATITUD": -34.81088657, "LONGITUD": -58.43333066 }, "geometry": { "type": "Point", "coordinates": [ -58.43333066, -34.81088657 ] } },
{ "type": "Feature", "properties": { "CGM": "Llavallol", "NOMBRE": "Iglesia Cristiana Evangelica Biblica Argentina", "TIPO": "IGLESIAS", "Fecha Vencimiento Reconocimiento": "2026-12-21T00:00:00", "LATITUD": -34.80651561, "LONGITUD": -58.41808372 }, "geometry": { "type": "Point", "coordinates": [ -58.41808372, -34.80651561 ] } },
{ "type": "Feature", "properties": { "CGM": "Llavallol", "NOMBRE": "Iglesia Evangelica Bautista Victoriosos En Cristo", "TIPO": "IGLESIAS", "Fecha Vencimiento Reconocimiento": "2026-12-21T00:00:00", "LATITUD": -34.79574151, "LONGITUD": -58.42771344 }, "geometry": { "type": "Point", "coordinates": [ -58.42771344, -34.79574151 ] } },
{ "type": "Feature", "properties": { "CGM": "Llavallol", "NOMBRE": "Iglesia Evangelica Cristiana De Argentina Mi Fortaleza", "TIPO": "IGLESIAS", "Fecha Vencimiento Reconocimiento": "2026-12-21T00:00:00", "LATITUD": -34.80483984, "LONGITUD": -58.42186878 }, "geometry": { "type": "Point", "coordinates": [ -58.42186878, -34.80483984 ] } },
{ "type": "Feature", "properties": { "CGM": "Llavallol", "NOMBRE": "Iglesia Nueva Apostolica Sud America Filial 4", "TIPO": "IGLESIAS", "Fecha Vencimiento Reconocimiento": "2026-12-21T00:00:00", "LATITUD": -34.81220024, "LONGITUD": -58.43085832 }, "geometry": { "type": "Point", "coordinates": [ -58.43085832, -34.81220024 ] } },
{ "type": "Feature", "properties": { "CGM": "Llavallol", "NOMBRE": "Iglesia Temperley Para Cristo", "TIPO": "IGLESIAS", "Fecha Vencimiento Reconocimiento": "2026-12-21T00:00:00", "LATITUD": -34.782878, "LONGITUD": -58.424484 }, "geometry": { "type": "Point", "coordinates": [ -58.424484, -34.782878 ] } },
{ "type": "Feature", "properties": { "CGM": "Llavallol", "NOMBRE": "Impacto De Fe Para Las Naciones", "TIPO": "IGLESIAS", "Fecha Vencimiento Reconocimiento": "2026-12-21T00:00:00", "LATITUD": -34.798006, "LONGITUD": -58.411773 }, "geometry": { "type": "Point", "coordinates": [ -58.411773, -34.798006 ] } },
{ "type": "Feature", "properties": { "CGM": "Llavallol", "NOMBRE": "Manantial De Vida", "TIPO": "IGLESIAS", "Fecha Vencimiento Reconocimiento": "2026-12-21T00:00:00", "LATITUD": -34.78951893, "LONGITUD": -58.42006977 }, "geometry": { "type": "Point", "coordinates": [ -58.42006977, -34.78951893 ] } },
{ "type": "Feature", "properties": { "CGM": "Llavallol", "NOMBRE": "Ministerio Apostolico Y Profetico Pacto Con Dios", "TIPO": "IGLESIAS", "Fecha Vencimiento Reconocimiento": "2026-12-21T00:00:00", "LATITUD": -34.79428868, "LONGITUD": -58.43082296 }, "geometry": { "type": "Point", "coordinates": [ -58.43082296, -34.79428868 ] } },
{ "type": "Feature", "properties": { "CGM": "Llavallol", "NOMBRE": "Ministerio Victoriosos En Cristo", "TIPO": "IGLESIAS", "Fecha Vencimiento Reconocimiento": "2026-12-21T00:00:00", "LATITUD": -34.79565753, "LONGITUD": -58.42950954 }, "geometry": { "type": "Point", "coordinates": [ -58.42950954, -34.79565753 ] } },
{ "type": "Feature", "properties": { "CGM": "Llavallol", "NOMBRE": "Casa Apostolica Y Profetica Manantial De Vida", "TIPO": "IGLESIAS", "Fecha Vencimiento Reconocimiento": "2026-12-21T00:00:00", "LATITUD": -34.81356, "LONGITUD": -58.42363 }, "geometry": { "type": "Point", "coordinates": [ -58.42363, -34.81356 ] } },
{ "type": "Feature", "properties": { "CGM": "Llavallol", "NOMBRE": "Casa Apostolica Y Profetica Vida Nueva En Cristo Jesus", "TIPO": "IGLESIAS", "Fecha Vencimiento Reconocimiento": "2026-12-21T00:00:00", "LATITUD": -34.80779, "LONGITUD": -58.42769 }, "geometry": { "type": "Point", "coordinates": [ -58.42769, -34.80779 ] } },
{ "type": "Feature", "properties": { "CGM": "Llavallol", "NOMBRE": "Casa De Adoradores", "TIPO": "IGLESIAS", "Fecha Vencimiento Reconocimiento": "2026-12-21T00:00:00", "LATITUD": -34.80892, "LONGITUD": -58.41401 }, "geometry": { "type": "Point", "coordinates": [ -58.41401, -34.80892 ] } },
{ "type": "Feature", "properties": { "CGM": "Llavallol", "NOMBRE": "Casa De Dios Puertas Al Cielo", "TIPO": "IGLESIAS", "Fecha Vencimiento Reconocimiento": "2026-12-21T00:00:00", "LATITUD": -34.81093, "LONGITUD": -58.42713 }, "geometry": { "type": "Point", "coordinates": [ -58.42713, -34.81093 ] } },
{ "type": "Feature", "properties": { "CGM": "Llavallol", "NOMBRE": "Centro Familiar El Amparo", "TIPO": "IGLESIAS", "Fecha Vencimiento Reconocimiento": "2026-12-21T00:00:00", "LATITUD": -34.80443, "LONGITUD": -58.43185 }, "geometry": { "type": "Point", "coordinates": [ -58.43185, -34.80443 ] } },
{ "type": "Feature", "properties": { "CGM": "Llavallol", "NOMBRE": "El Lugar De Su Presencia Casa Profetica", "TIPO": "IGLESIAS", "Fecha Vencimiento Reconocimiento": "2026-12-21T00:00:00", "LATITUD": -34.7858, "LONGITUD": -58.42479 }, "geometry": { "type": "Point", "coordinates": [ -58.42479, -34.7858 ] } },
{ "type": "Feature", "properties": { "CGM": "Llavallol", "NOMBRE": "Fuego De Amor Y Sanidad", "TIPO": "IGLESIAS", "Fecha Vencimiento Reconocimiento": "2026-12-21T00:00:00", "LATITUD": -34.81169, "LONGITUD": -58.42397 }, "geometry": { "type": "Point", "coordinates": [ -58.42397, -34.81169 ] } },
{ "type": "Feature", "properties": { "CGM": "Llavallol", "NOMBRE": "Grito De Esperanza", "TIPO": "IGLESIAS", "Fecha Vencimiento Reconocimiento": "2026-12-21T00:00:00", "LATITUD": -34.79202, "LONGITUD": -58.43413 }, "geometry": { "type": "Point", "coordinates": [ -58.43413, -34.79202 ] } },
{ "type": "Feature", "properties": { "CGM": "Llavallol", "NOMBRE": "Iglesia Cristiana Alzar Mis Ojos", "TIPO": "IGLESIAS", "Fecha Vencimiento Reconocimiento": "2026-12-21T00:00:00", "LATITUD": -34.80503, "LONGITUD": -58.41656 }, "geometry": { "type": "Point", "coordinates": [ -58.41656, -34.80503 ] } },
{ "type": "Feature", "properties": { "CGM": "Llavallol", "NOMBRE": "Iglesia Cristiana Peniel", "TIPO": "IGLESIAS", "Fecha Vencimiento Reconocimiento": "2026-12-21T00:00:00", "LATITUD": -34.81124, "LONGITUD": -58.43104 }, "geometry": { "type": "Point", "coordinates": [ -58.43104, -34.81124 ] } },
{ "type": "Feature", "properties": { "CGM": "Llavallol", "NOMBRE": "Iglesia Evangelica Cristiana Mi Fortaleza", "TIPO": "IGLESIAS", "Fecha Vencimiento Reconocimiento": "2026-12-21T00:00:00", "LATITUD": -34.79805, "LONGITUD": -58.42515 }, "geometry": { "type": "Point", "coordinates": [ -58.42515, -34.79805 ] } },
{ "type": "Feature", "properties": { "CGM": "Llavallol", "NOMBRE": "Iglesia Evangelica Pentecostal Jesus El Buen Pastor", "TIPO": "IGLESIAS", "Fecha Vencimiento Reconocimiento": "2026-12-21T00:00:00", "LATITUD": -34.79805, "LONGITUD": -58.42515 }, "geometry": { "type": "Point", "coordinates": [ -58.42515, -34.79805 ] } },
{ "type": "Feature", "properties": { "CGM": "Llavallol", "NOMBRE": "Iglesia Rescatando Vidas", "TIPO": "IGLESIAS", "Fecha Vencimiento Reconocimiento": "2026-12-21T00:00:00", "LATITUD": -34.8119, "LONGITUD": -58.42023 }, "geometry": { "type": "Point", "coordinates": [ -58.42023, -34.8119 ] } },
{ "type": "Feature", "properties": { "CGM": "Llavallol", "NOMBRE": "Iglesia Rey De Gloria", "TIPO": "IGLESIAS", "Fecha Vencimiento Reconocimiento": "2026-12-21T00:00:00", "LATITUD": -34.80103, "LONGITUD": -58.43098 }, "geometry": { "type": "Point", "coordinates": [ -58.43098, -34.80103 ] } },
{ "type": "Feature", "properties": { "CGM": "Llavallol", "NOMBRE": "Ile Ase Osum Apara", "TIPO": "IGLESIAS", "Fecha Vencimiento Reconocimiento": "2026-12-21T00:00:00", "LATITUD": -34.78653, "LONGITUD": -58.42281 }, "geometry": { "type": "Point", "coordinates": [ -58.42281, -34.78653 ] } },
{ "type": "Feature", "properties": { "CGM": "Llavallol", "NOMBRE": "La Hermosa De Los Milagros De Llavallol", "TIPO": "IGLESIAS", "Fecha Vencimiento Reconocimiento": "2026-12-21T00:00:00", "LATITUD": -34.78945, "LONGITUD": -58.42318 }, "geometry": { "type": "Point", "coordinates": [ -58.42318, -34.78945 ] } },
{ "type": "Feature", "properties": { "CGM": "Llavallol", "NOMBRE": "Lluvia En El Desierto", "TIPO": "IGLESIAS", "Fecha Vencimiento Reconocimiento": "2026-12-21T00:00:00", "LATITUD": -34.78482, "LONGITUD": -58.43234 }, "geometry": { "type": "Point", "coordinates": [ -58.43234, -34.78482 ] } },
{ "type": "Feature", "properties": { "CGM": "Llavallol", "NOMBRE": "Los Santos Del Altisimo", "TIPO": "IGLESIAS", "Fecha Vencimiento Reconocimiento": "2026-12-21T00:00:00", "LATITUD": -34.80947, "LONGITUD": -58.42755 }, "geometry": { "type": "Point", "coordinates": [ -58.42755, -34.80947 ] } },
{ "type": "Feature", "properties": { "CGM": "Llavallol", "NOMBRE": "Ministerio Apostolico Y Profetico Tierra Deseable", "TIPO": "IGLESIAS", "Fecha Vencimiento Reconocimiento": "2026-12-21T00:00:00", "LATITUD": -34.80704, "LONGITUD": -58.42654 }, "geometry": { "type": "Point", "coordinates": [ -58.42654, -34.80704 ] } },
{ "type": "Feature", "properties": { "CGM": "Llavallol", "NOMBRE": "Ministerio Cristo Corta Las Cadenas Iglesia De La Calle", "TIPO": "IGLESIAS", "Fecha Vencimiento Reconocimiento": "2026-12-21T00:00:00", "LATITUD": -34.80646, "LONGITUD": -58.41788 }, "geometry": { "type": "Point", "coordinates": [ -58.41788, -34.80646 ] } },
{ "type": "Feature", "properties": { "CGM": "Llavallol", "NOMBRE": "Ministerio De Restauracion Familiar", "TIPO": "IGLESIAS", "Fecha Vencimiento Reconocimiento": "2026-12-21T00:00:00", "LATITUD": -34.80384, "LONGITUD": -58.4104 }, "geometry": { "type": "Point", "coordinates": [ -58.4104, -34.80384 ] } },
{ "type": "Feature", "properties": { "CGM": "Llavallol", "NOMBRE": "Ministerio Jesucristo Es El Señor", "TIPO": "IGLESIAS", "Fecha Vencimiento Reconocimiento": "2026-12-21T00:00:00", "LATITUD": -34.812, "LONGITUD": -58.42834 }, "geometry": { "type": "Point", "coordinates": [ -58.42834, -34.812 ] } },
{ "type": "Feature", "properties": { "CGM": "Llavallol", "NOMBRE": "Ministerio Puerta De La Fe", "TIPO": "IGLESIAS", "Fecha Vencimiento Reconocimiento": "2026-12-21T00:00:00", "LATITUD": -34.81022, "LONGITUD": -58.42271 }, "geometry": { "type": "Point", "coordinates": [ -58.42271, -34.81022 ] } },
{ "type": "Feature", "properties": { "CGM": "Llavallol", "NOMBRE": "Ministerio Talita Cumi", "TIPO": "IGLESIAS", "Fecha Vencimiento Reconocimiento": "2026-12-21T00:00:00", "LATITUD": -34.80947, "LONGITUD": -58.42755 }, "geometry": { "type": "Point", "coordinates": [ -58.42755, -34.80947 ] } },
{ "type": "Feature", "properties": { "CGM": "Llavallol", "NOMBRE": "Parroquia San Francisco De Asis", "TIPO": "IGLESIAS", "Fecha Vencimiento Reconocimiento": "2026-12-21T00:00:00", "LATITUD": -34.7912, "LONGITUD": -58.43302 }, "geometry": { "type": "Point", "coordinates": [ -58.43302, -34.7912 ] } },
{ "type": "Feature", "properties": { "CGM": "Llavallol", "NOMBRE": "Raices Iglesia", "TIPO": "IGLESIAS", "Fecha Vencimiento Reconocimiento": "2026-12-21T00:00:00", "LATITUD": -34.80237, "LONGITUD": -58.40695 }, "geometry": { "type": "Point", "coordinates": [ -58.40695, -34.80237 ] } },
{ "type": "Feature", "properties": { "CGM": "Llavallol", "NOMBRE": "Sede Cristianos Motociclistas", "TIPO": "IGLESIAS", "Fecha Vencimiento Reconocimiento": "2026-12-21T00:00:00", "LATITUD": -34.8025, "LONGITUD": -58.43147 }, "geometry": { "type": "Point", "coordinates": [ -58.43147, -34.8025 ] } },
{ "type": "Feature", "properties": { "CGM": "Llavallol", "NOMBRE": "Tierra De Jehova Jireh", "TIPO": "IGLESIAS", "Fecha Vencimiento Reconocimiento": "2026-12-21T00:00:00", "LATITUD": -34.79805, "LONGITUD": -58.42515 }, "geometry": { "type": "Point", "coordinates": [ -58.42515, -34.79805 ] } },
{ "type": "Feature", "properties": { "CGM": "Llavallol", "NOMBRE": "Todo Lo Puedo En Cristo", "TIPO": "IGLESIAS", "Fecha Vencimiento Reconocimiento": "2026-12-21T00:00:00", "LATITUD": -34.79357, "LONGITUD": -58.41613 }, "geometry": { "type": "Point", "coordinates": [ -58.41613, -34.79357 ] } },
{ "type": "Feature", "properties": { "CGM": "Llavallol", "NOMBRE": "Un Nuevo Comienzo", "TIPO": "IGLESIAS", "Fecha Vencimiento Reconocimiento": "2026-12-21T00:00:00", "LATITUD": -34.79805, "LONGITUD": -58.42515 }, "geometry": { "type": "Point", "coordinates": [ -58.42515, -34.79805 ] } }
]
}
