{
"type": "FeatureCollection",
"name": "iglesias_Santa Marta",
"crs": { "type": "name", "properties": { "name": "urn:ogc:def:crs:OGC:1.3:CRS84" } },
"features": [
{ "type": "Feature", "properties": { "CGM": "Santa Marta", "NOMBRE": "Asociacion Argentina De Los Adventistas Del 7 Dia", "TIPO": "IGLESIAS", "Fecha Vencimiento Reconocimiento": "2026-12-21T00:00:00", "LATITUD": -34.752528, "LONGITUD": -58.454966 }, "geometry": { "type": "Point", "coordinates": [ -58.454966, -34.752528 ] } },
{ "type": "Feature", "properties": { "CGM": "Santa Marta", "NOMBRE": "Cabana De Preto Velho", "TIPO": "IGLESIAS", "Fecha Vencimiento Reconocimiento": "2026-12-21T00:00:00", "LATITUD": -34.745289, "LONGITUD": -58.442614 }, "geometry": { "type": "Point", "coordinates": [ -58.442614, -34.745289 ] } },
{ "type": "Feature", "properties": { "CGM": "Santa Marta", "NOMBRE": "Casa De Dios Elim", "TIPO": "IGLESIAS", "Fecha Vencimiento Reconocimiento": "2026-12-21T00:00:00", "LATITUD": -34.7446141, "LONGITUD": -58.4375184 }, "geometry": { "type": "Point", "coordinates": [ -58.4375184, -34.7446141 ] } },
{ "type": "Feature", "properties": { "CGM": "Santa Marta", "NOMBRE": "Herederos Para El Reino", "TIPO": "IGLESIAS", "Fecha Vencimiento Reconocimiento": "2026-12-21T00:00:00", "LATITUD": -34.744731, "LONGITUD": -58.439628 }, "geometry": { "type": "Point", "coordinates": [ -58.439628, -34.744731 ] } },
{ "type": "Feature", "properties": { "CGM": "Santa Marta", "NOMBRE": "Iglesia Aguas Profundas", "TIPO": "IGLESIAS", "Fecha Vencimiento Reconocimiento": "2026-12-21T00:00:00", "LATITUD": -34.74321758, "LONGITUD": -58.43750481 }, "geometry": { "type": "Point", "coordinates": [ -58.43750481, -34.74321758 ] } },
{ "type": "Feature", "properties": { "CGM": "Santa Marta", "NOMBRE": "Iglesia Cristiana Evangelica Filadelfia", "TIPO": "IGLESIAS", "Fecha Vencimiento Reconocimiento": "2026-12-21T00:00:00", "LATITUD": -34.74511, "LONGITUD": -58.443372 }, "geometry": { "type": "Point", "coordinates": [ -58.443372, -34.74511 ] } },
{ "type": "Feature", "properties": { "CGM": "Santa Marta", "NOMBRE": "Luz De Mi Vida", "TIPO": "IGLESIAS", "Fecha Vencimiento Reconocimiento": "2026-12-21T00:00:00", "LATITUD": -34.75168135, "LONGITUD": -58.44473455 }, "geometry": { "type": "Point", "coordinates": [ -58.44473455, -34.75168135 ] } },
{ "type": "Feature", "properties": { "CGM": "Santa Marta", "NOMBRE": "Luz De Un Nuevo Dia", "TIPO": "IGLESIAS", "Fecha Vencimiento Reconocimiento": "2026-12-21T00:00:00", "LATITUD": -34.75269829, "LONGITUD": -58.45737031 }, "geometry": { "type": "Point", "coordinates": [ -58.45737031, -34.75269829 ] } },
{ "type": "Feature", "properties": { "CGM": "Santa Marta", "NOMBRE": "Ministerio Pes Poder Del Espiritu Santo", "TIPO": "IGLESIAS", "Fecha Vencimiento Reconocimiento": "2026-12-21T00:00:00", "LATITUD": -34.750768, "LONGITUD": -58.448018 }, "geometry": { "type": "Point", "coordinates": [ -58.448018, -34.750768 ] } },
{ "type": "Feature", "properties": { "CGM": "Santa Marta", "NOMBRE": "Parroquia Cristo Obrero", "TIPO": "IGLESIAS", "Fecha Vencimiento Reconocimiento": "2026-12-21T00:00:00", "LATITUD": -34.74824, "LONGITUD": -58.437744 }, "geometry": { "type": "Point", "coordinates": [ -58.437744, -34.74824 ] } },
{ "type": "Feature", "properties": { "CGM": "Santa Marta", "NOMBRE": "Arca De La Bendicion", "TIPO": "IGLESIAS", "Fecha Vencimiento Reconocimiento": "2026-12-21T00:00:00", "LATITUD": -34.74765, "LONGITUD": -58.45613 }, "geometry": { "type": "Point", "coordinates": [ -58.45613, -34.74765 ] } },
{ "type": "Feature", "properties": { "CGM": "Santa Marta", "NOMBRE": "Cabaña De Preto Velho", "TIPO": "IGLESIAS", "Fecha Vencimiento Reconocimiento": "2026-12-21T00:00:00", "LATITUD": -34.74516, "LONGITUD": -58.44274 }, "geometry": { "type": "Point", "coordinates": [ -58.44274, -34.74516 ] } },
{ "type": "Feature", "properties": { "CGM": "Santa Marta", "NOMBRE": "Capilla Rosa Mistica", "TIPO": "IGLESIAS", "Fecha Vencimiento Reconocimiento": "2026-12-21T00:00:00", "LATITUD": -34.74598, "LONGITUD": -58.44649 }, "geometry": { "type": "Point", "coordinates": [ -58.44649, -34.74598 ] } },
{ "type": "Feature", "properties": { "CGM": "Santa Marta", "NOMBRE": "Casa De Dios Elim Iglesia", "TIPO": "IGLESIAS", "Fecha Vencimiento Reconocimiento": "2026-12-21T00:00:00", "LATITUD": -34.74459, "LONGITUD": -58.43761 }, "geometry": { "type": "Point", "coordinates": [ -58.43761, -34.74459 ] } },
{ "type": "Feature", "properties": { "CGM": "Santa Marta", "NOMBRE": "Casa De Oracion C.C.R", "TIPO": "IGLESIAS", "Fecha Vencimiento Reconocimiento": "2026-12-21T00:00:00", "LATITUD": -34.74833, "LONGITUD": -58.45742 }, "geometry": { "type": "Point", "coordinates": [ -58.45742, -34.74833 ] } },
{ "type": "Feature", "properties": { "CGM": "Santa Marta", "NOMBRE": "Casa De Oracion El Buen Samaritano", "TIPO": "IGLESIAS", "Fecha Vencimiento Reconocimiento": "2026-12-21T00:00:00", "LATITUD": -34.75431, "LONGITUD": -58.45622 }, "geometry": { "type": "Point", "coordinates": [ -58.45622, -34.75431 ] } },
{ "type": "Feature", "properties": { "CGM": "Santa Marta", "NOMBRE": "Centro Cristiano Restauracion Anexo Filipenses", "TIPO": "IGLESIAS", "Fecha Vencimiento Reconocimiento": "2026-12-21T00:00:00", "LATITUD": -34.74701, "LONGITUD": -58.45129 }, "geometry": { "type": "Point", "coordinates": [ -58.45129, -34.74701 ] } },
{ "type": "Feature", "properties": { "CGM": "Santa Marta", "NOMBRE": "Centro De Adoracion Gloria Al Eterno", "TIPO": "IGLESIAS", "Fecha Vencimiento Reconocimiento": "2026-12-21T00:00:00", "LATITUD": -34.74044, "LONGITUD": -58.43732 }, "geometry": { "type": "Point", "coordinates": [ -58.43732, -34.74044 ] } },
{ "type": "Feature", "properties": { "CGM": "Santa Marta", "NOMBRE": "Comunidad De Fe Capilla Santa Marta", "TIPO": "IGLESIAS", "Fecha Vencimiento Reconocimiento": "2026-12-21T00:00:00", "LATITUD": -34.7493, "LONGITUD": -58.45033 }, "geometry": { "type": "Point", "coordinates": [ -58.45033, -34.7493 ] } },
{ "type": "Feature", "properties": { "CGM": "Santa Marta", "NOMBRE": "Cumbre Mundial De Milagros", "TIPO": "IGLESIAS", "Fecha Vencimiento Reconocimiento": "2026-12-21T00:00:00", "LATITUD": -34.75093, "LONGITUD": -58.4492 }, "geometry": { "type": "Point", "coordinates": [ -58.4492, -34.75093 ] } },
{ "type": "Feature", "properties": { "CGM": "Santa Marta", "NOMBRE": "Dios Con Nosotros", "TIPO": "IGLESIAS", "Fecha Vencimiento Reconocimiento": "2026-12-21T00:00:00", "LATITUD": -34.75555, "LONGITUD": -58.45435 }, "geometry": { "type": "Point", "coordinates": [ -58.45435, -34.75555 ] } },
{ "type": "Feature", "properties": { "CGM": "Santa Marta", "NOMBRE": "Faro De Luz De Un Nuevo Dia", "TIPO": "IGLESIAS", "Fecha Vencimiento Reconocimiento": "2026-12-21T00:00:00", "LATITUD": -34.74995, "LONGITUD": -58.43845 }, "geometry": { "type": "Point", "coordinates": [ -58.43845, -34.74995 ] } },
{ "type": "Feature", "properties": { "CGM": "Santa Marta", "NOMBRE": "Gracia Y Gloria Buenos Aires", "TIPO": "IGLESIAS", "Fecha Vencimiento Reconocimiento": "2026-12-21T00:00:00", "LATITUD": -34.74599, "LONGITUD": -58.43552 }, "geometry": { "type": "Point", "coordinates": [ -58.43552, -34.74599 ] } },
{ "type": "Feature", "properties": { "CGM": "Santa Marta", "NOMBRE": "Hay Una Esperanza", "TIPO": "IGLESIAS", "Fecha Vencimiento Reconocimiento": "2026-12-21T00:00:00", "LATITUD": -34.74405, "LONGITUD": -58.44619 }, "geometry": { "type": "Point", "coordinates": [ -58.44619, -34.74405 ] } },
{ "type": "Feature", "properties": { "CGM": "Santa Marta", "NOMBRE": "Iglesia Apostolica Y Profetica Rios De Aguas Vivas", "TIPO": "IGLESIAS", "Fecha Vencimiento Reconocimiento": "2026-12-21T00:00:00", "LATITUD": -34.74578, "LONGITUD": -58.44324 }, "geometry": { "type": "Point", "coordinates": [ -58.44324, -34.74578 ] } },
{ "type": "Feature", "properties": { "CGM": "Santa Marta", "NOMBRE": "Iglesia Casa De Avivamiento", "TIPO": "IGLESIAS", "Fecha Vencimiento Reconocimiento": "2026-12-21T00:00:00", "LATITUD": -34.74429, "LONGITUD": -58.45333 }, "geometry": { "type": "Point", "coordinates": [ -58.45333, -34.74429 ] } },
{ "type": "Feature", "properties": { "CGM": "Santa Marta", "NOMBRE": "Iglesia De La Calle Cristo Corta Las Cadenas", "TIPO": "IGLESIAS", "Fecha Vencimiento Reconocimiento": "2026-12-21T00:00:00", "LATITUD": -34.74486, "LONGITUD": -58.43962 }, "geometry": { "type": "Point", "coordinates": [ -58.43962, -34.74486 ] } },
{ "type": "Feature", "properties": { "CGM": "Santa Marta", "NOMBRE": "Iglesia Dios Fortalece", "TIPO": "IGLESIAS", "Fecha Vencimiento Reconocimiento": "2026-12-21T00:00:00", "LATITUD": -34.75046, "LONGITUD": -58.44127 }, "geometry": { "type": "Point", "coordinates": [ -58.44127, -34.75046 ] } },
{ "type": "Feature", "properties": { "CGM": "Santa Marta", "NOMBRE": "Iglesia Evangelica El Renuevo", "TIPO": "IGLESIAS", "Fecha Vencimiento Reconocimiento": "2026-12-21T00:00:00", "LATITUD": -34.7454, "LONGITUD": -58.43411 }, "geometry": { "type": "Point", "coordinates": [ -58.43411, -34.7454 ] } },
{ "type": "Feature", "properties": { "CGM": "Santa Marta", "NOMBRE": "Iglesia Evangelica Espiritu Y Fuego", "TIPO": "IGLESIAS", "Fecha Vencimiento Reconocimiento": "2026-12-21T00:00:00", "LATITUD": -34.74236, "LONGITUD": -58.43792 }, "geometry": { "type": "Point", "coordinates": [ -58.43792, -34.74236 ] } },
{ "type": "Feature", "properties": { "CGM": "Santa Marta", "NOMBRE": "Iglesia Internaciónal El Rey Jesus", "TIPO": "IGLESIAS", "Fecha Vencimiento Reconocimiento": "2026-12-21T00:00:00", "LATITUD": -34.75011837, "LONGITUD": -58.45238328 }, "geometry": { "type": "Point", "coordinates": [ -58.45238328, -34.75011837 ] } },
{ "type": "Feature", "properties": { "CGM": "Santa Marta", "NOMBRE": "Iglesia Jesucristo Sin Fronteras", "TIPO": "IGLESIAS", "Fecha Vencimiento Reconocimiento": "2026-12-21T00:00:00", "LATITUD": -34.74201, "LONGITUD": -58.44432 }, "geometry": { "type": "Point", "coordinates": [ -58.44432, -34.74201 ] } },
{ "type": "Feature", "properties": { "CGM": "Santa Marta", "NOMBRE": "Iglesia Pentecostal Puerta Al Cielo", "TIPO": "IGLESIAS", "Fecha Vencimiento Reconocimiento": "2026-12-21T00:00:00", "LATITUD": -34.7409, "LONGITUD": -58.44341 }, "geometry": { "type": "Point", "coordinates": [ -58.44341, -34.7409 ] } },
{ "type": "Feature", "properties": { "CGM": "Santa Marta", "NOMBRE": "Ile Iemaya Nana", "TIPO": "IGLESIAS", "Fecha Vencimiento Reconocimiento": "2026-12-21T00:00:00", "LATITUD": -34.74742, "LONGITUD": -58.44423 }, "geometry": { "type": "Point", "coordinates": [ -58.44423, -34.74742 ] } },
{ "type": "Feature", "properties": { "CGM": "Santa Marta", "NOMBRE": "Ile Oxum Y Ogum", "TIPO": "IGLESIAS", "Fecha Vencimiento Reconocimiento": "2026-12-21T00:00:00", "LATITUD": -34.74668, "LONGITUD": -58.44285 }, "geometry": { "type": "Point", "coordinates": [ -58.44285, -34.74668 ] } },
{ "type": "Feature", "properties": { "CGM": "Santa Marta", "NOMBRE": "Jesus La Luz Del Mundo", "TIPO": "IGLESIAS", "Fecha Vencimiento Reconocimiento": "2026-12-21T00:00:00", "LATITUD": -34.75036, "LONGITUD": -58.44592 }, "geometry": { "type": "Point", "coordinates": [ -58.44592, -34.75036 ] } },
{ "type": "Feature", "properties": { "CGM": "Santa Marta", "NOMBRE": "La Pesca Milagrosa", "TIPO": "IGLESIAS", "Fecha Vencimiento Reconocimiento": "2026-12-21T00:00:00", "LATITUD": -34.74587, "LONGITUD": -58.45405 }, "geometry": { "type": "Point", "coordinates": [ -58.45405, -34.74587 ] } },
{ "type": "Feature", "properties": { "CGM": "Santa Marta", "NOMBRE": "Los Guerreros De Oxala", "TIPO": "IGLESIAS", "Fecha Vencimiento Reconocimiento": "2026-12-21T00:00:00", "LATITUD": -34.75066, "LONGITUD": -58.45801 }, "geometry": { "type": "Point", "coordinates": [ -58.45801, -34.75066 ] } },
{ "type": "Feature", "properties": { "CGM": "Santa Marta", "NOMBRE": "Los Guerreros De Oya Y Xango", "TIPO": "IGLESIAS", "Fecha Vencimiento Reconocimiento": "2026-12-21T00:00:00", "LATITUD": -34.7482, "LONGITUD": -58.45744 }, "geometry": { "type": "Point", "coordinates": [ -58.45744, -34.7482 ] } },
{ "type": "Feature", "properties": { "CGM": "Santa Marta", "NOMBRE": "Ministerio Evangelico Luz De Mi Vida", "TIPO": "IGLESIAS", "Fecha Vencimiento Reconocimiento": "2026-12-21T00:00:00", "LATITUD": -34.75036, "LONGITUD": -58.44592 }, "geometry": { "type": "Point", "coordinates": [ -58.44592, -34.75036 ] } },
{ "type": "Feature", "properties": { "CGM": "Santa Marta", "NOMBRE": "Ministerio Profetico Apostolico Internacional Filadelfia", "TIPO": "IGLESIAS", "Fecha Vencimiento Reconocimiento": "2026-12-21T00:00:00", "LATITUD": -34.75186, "LONGITUD": -58.44969 }, "geometry": { "type": "Point", "coordinates": [ -58.44969, -34.75186 ] } },
{ "type": "Feature", "properties": { "CGM": "Santa Marta", "NOMBRE": "Ministerio Profetico Y Restauracion Jesucristo A Las Naciones", "TIPO": "IGLESIAS", "Fecha Vencimiento Reconocimiento": "2026-12-21T00:00:00", "LATITUD": -34.74604, "LONGITUD": -58.45187 }, "geometry": { "type": "Point", "coordinates": [ -58.45187, -34.74604 ] } },
{ "type": "Feature", "properties": { "CGM": "Santa Marta", "NOMBRE": "Nuestra Señora Del Rosario De San Nicolas", "TIPO": "IGLESIAS", "Fecha Vencimiento Reconocimiento": "2026-12-21T00:00:00", "LATITUD": -34.74861, "LONGITUD": -58.45954 }, "geometry": { "type": "Point", "coordinates": [ -58.45954, -34.74861 ] } },
{ "type": "Feature", "properties": { "CGM": "Santa Marta", "NOMBRE": "Rescatados Por Jesus", "TIPO": "IGLESIAS", "Fecha Vencimiento Reconocimiento": "2026-12-21T00:00:00", "LATITUD": -34.73605, "LONGITUD": -58.43478 }, "geometry": { "type": "Point", "coordinates": [ -58.43478, -34.73605 ] } },
{ "type": "Feature", "properties": { "CGM": "Santa Marta", "NOMBRE": "Tiempo De Cambio", "TIPO": "IGLESIAS", "Fecha Vencimiento Reconocimiento": "2026-12-21T00:00:00", "LATITUD": -34.75143, "LONGITUD": -58.44395 }, "geometry": { "type": "Point", "coordinates": [ -58.44395, -34.75143 ] } },
{ "type": "Feature", "properties": { "CGM": "Santa Marta", "NOMBRE": "Xango Oxala", "TIPO": "IGLESIAS", "Fecha Vencimiento Reconocimiento": "2026-12-21T00:00:00", "LATITUD": -34.74904, "LONGITUD": -58.43779 }, "geometry": { "type": "Point", "coordinates": [ -58.43779, -34.74904 ] } },
{ "type": "Feature", "properties": { "CGM": "Santa Marta", "NOMBRE": "Yo Soy El Que Soy", "TIPO": "IGLESIAS", "Fecha Vencimiento Reconocimiento": "2026-12-21T00:00:00", "LATITUD": -34.75387, "LONGITUD": -58.4504 }, "geometry": { "type": "Point", "coordinates": [ -58.4504, -34.75387 ] } },
{ "type": "Feature", "properties": { "CGM": "Santa Marta", "NOMBRE": "Yo Soy La Vid Verdadera", "TIPO": "IGLESIAS", "Fecha Vencimiento Reconocimiento": "2026-12-21T00:00:00", "LATITUD": -34.74591, "LONGITUD": -58.45523 }, "geometry": { "type": "Point", "coordinates": [ -58.45523, -34.74591 ] } }
]
}
