{
"type": "FeatureCollection",
"name": "reductores_Temperley",
"crs": { "type": "name", "properties": { "name": "urn:ogc:def:crs:OGC:1.3:CRS84" } },
"features": [
{ "type": "Feature", "properties": { "Name": "Garibaldi & Miguel Estanislao Soler", "description": "Colocación realizada el día 22/7/2021, 1/2 (media) calzada en cada sentido.", "CGM": "Temperley" }, "geometry": { "type": "Point", "coordinates": [ -58.4113817, -34.7746069, 0.0 ] } },
{ "type": "Feature", "properties": { "Name": "Boquerón & Garibaldi", "description": "Colocación realizada el día 22/7/2021, 1 (una) calzada completa.", "CGM": "Temperley" }, "geometry": { "type": "Point", "coordinates": [ -58.4160918, -34.7771405, 0.0 ] } },
{ "type": "Feature", "properties": { "Name": "Garibaldi & General A. J. de Sucre", "description": "Colocación realizada el día 22/7/2021, 1 (una) calzada completa.", "CGM": "Temperley" }, "geometry": { "type": "Point", "coordinates": [ -58.4193543, -34.7789015, 0.0 ] } },
{ "type": "Feature", "properties": { "Name": "Presbisterio J. Russo & San Benito", "description": "Colocación realizada el día 28/7/2021, 1 (una) calzada completa.", "CGM": "Temperley" }, "geometry": { "type": "Point", "coordinates": [ -58.4199017, -34.7848135, 0.0 ] } },
{ "type": "Feature", "properties": { "Name": "Calle Avellaneda & Scalabrini Ortiz", "description": "Colocación realizada el día 5/11/2021, 1 (una) calzada completa.", "CGM": "Temperley" }, "geometry": { "type": "Point", "coordinates": [ -58.4124481, -34.7817647, 0.0 ] } },
{ "type": "Feature", "properties": { "Name": "Warnes & Pedro Calderón de la Barca", "description": "Colocación realizada el día 6/12/2021, 1 (una) calzada completa.", "CGM": "Temperley" }, "geometry": { "type": "Point", "coordinates": [ -58.3774727, -34.7809315, 0.0 ] } },
{ "type": "Feature", "properties": { "Name": "Warnes & Pedro Calderón de la Barca", "description": "Colocación realizada el día 6/12/2021, 1 (una) calzada completa.", "CGM": "Temperley" }, "geometry": { "type": "Point", "coordinates": [ -58.3768875, -34.7806127, 0.0 ] } },
{ "type": "Feature", "properties": { "Name": "Joaquín V. González & 14 de Julio", "description": "Colocación realizada el día 6/12/2021, 1 (una) calzada completa.", "CGM": "Temperley" }, "geometry": { "type": "Point", "coordinates": [ -58.3792176, -34.7671164, 0.0 ] } },
{ "type": "Feature", "properties": { "Name": "Bernardo de Irigoyen & Anchorena", "description": "Colocación realizada el día 09/02/2022, 1 (una) calzada completa.", "CGM": "Temperley" }, "geometry": { "type": "Point", "coordinates": [ -58.3856229, -34.7688159, 0.0 ] } },
{ "type": "Feature", "properties": { "Name": "Cangallo & Joaquín V. González", "description": "Colocación realizada el día 15/02/2022, 1 (una) calzada completa.", "CGM": "Temperley" }, "geometry": { "type": "Point", "coordinates": [ -58.3788504, -34.7681679, 0.0 ] } },
{ "type": "Feature", "properties": { "Name": "Joaquín V. González & Cangallo", "description": "Colocación realizada el día 15/02/2022, 1 (una) calzada completa.", "CGM": "Temperley" }, "geometry": { "type": "Point", "coordinates": [ -58.3787397, -34.7678396, 0.0 ] } },
{ "type": "Feature", "properties": { "Name": "Joaquín V. González & Cangallo", "description": "Colocación realizada el día 15/02/2022, 1 (una) calzada completa.", "CGM": "Temperley" }, "geometry": { "type": "Point", "coordinates": [ -58.3784876, -34.7682274, 0.0 ] } },
{ "type": "Feature", "properties": { "Name": "Tarija & Asunción", "description": "Colocación realizada el día 05/05/2022, 1 (una) calzada completa.", "CGM": "Temperley" }, "geometry": { "type": "Point", "coordinates": [ -58.3680071, -34.7736419, 0.0 ] } },
{ "type": "Feature", "properties": { "Name": "Carlos Guido Spano & Liniers", "description": "Colocación realizada el día 05/05/2022, 1 (una) calzada completa.", "CGM": "Temperley" }, "geometry": { "type": "Point", "coordinates": [ -58.4056063, -34.7796315, 0.0 ] } },
{ "type": "Feature", "properties": { "Name": "Garibaldi & Miguel Estanislao Soler", "description": "Colocación realizada el día 24/08/2022, 1 (una) calzada completa de 7 mts.", "CGM": "Temperley" }, "geometry": { "type": "Point", "coordinates": [ -58.4114058, -34.7746554, 0.0 ] } },
{ "type": "Feature", "properties": { "Name": "Garibaldi & General A. J. de Sucre", "description": "Colocación realizada el día 24/08/2022, 1 (una) calzada completa de 7 mts.", "CGM": "Temperley" }, "geometry": { "type": "Point", "coordinates": [ -58.4192605, -34.7788332, 0.0 ] } },
{ "type": "Feature", "properties": { "Name": "Garibaldi & General A. J. de Sucre", "description": "Colocación realizada el día 24/08/2022, 1 (una) calzada completa de 7 mts.", "CGM": "Temperley" }, "geometry": { "type": "Point", "coordinates": [ -58.4195033, -34.77895, 0.0 ] } },
{ "type": "Feature", "properties": { "Name": "Joaquín V. González & Juncal", "description": "Colocación realizada el día 15/09/2022, 1 (una) calzada completa de 6.5 mts.", "CGM": "Temperley" }, "geometry": { "type": "Point", "coordinates": [ -58.3820496, -34.7629089, 0.0 ] } },
{ "type": "Feature", "properties": { "Name": "Joaquín V. González & Juncal", "description": "Colocación realizada el día 15/09/2022, 1 (una) calzada completa de 6.5 mts.", "CGM": "Temperley" }, "geometry": { "type": "Point", "coordinates": [ -58.3823061, -34.762453, 0.0 ] } },
{ "type": "Feature", "properties": { "Name": "30 de Septiembre & Alzaga", "description": "Colocación realizada el día 15/09/2022, 1 (una) calzada completa de 6 mts.", "CGM": "Temperley" }, "geometry": { "type": "Point", "coordinates": [ -58.3814281, -34.783113, 0.0 ] } },
{ "type": "Feature", "properties": { "Name": "30 de Septiembre & Albarracín", "description": "Colocación realizada el día 15/09/2022, 1 (una) calzada completa de 6 mts.", "CGM": "Temperley" }, "geometry": { "type": "Point", "coordinates": [ -58.3825783, -34.7837232, 0.0 ] } },
{ "type": "Feature", "properties": { "Name": "Calle Avellaneda & Miguel Estanislao Soler", "description": "Colocación realizada el día 17/10/2022, 1 (una) calzada completa de 7,5 mts.", "CGM": "Temperley" }, "geometry": { "type": "Point", "coordinates": [ -58.4077564, -34.7792346, 0.0 ] } },
{ "type": "Feature", "properties": { "Name": "Coronel Brandsen & General José María Paz", "description": "<img src=\"https://mymaps.usercontent.google.com/hostedimage/m/*/3AL_Y2X60DtFre69asdoL7VJUtBK1MSAmee_OA7KdZ-veLVyxUMdYFuSArJpTvFsV7PXtplz7vHssJ61twKSansXVqhj5rxpuyK3LtxLy_aIqGdABI2LG6rIJPnxTFDlfHFulyuz78H2W1JnImMTD2KJE1j_stVtsiQW4yaqyRtSIFF817UJLX925DV1TGXUAiFQVKc-oIWFmCfeMNLwyf8uuHiFPXz9fma5MzocSuqmw0uidM-JJ2xDziXwK0yPIlg?authuser=0&fife=s16383\" height=\"200\" width=\"auto\" /><br><br>Colocación realizada el día 22/03/2023, 1 (una) calzada completa de 6.5 mts.", "CGM": "Temperley" }, "geometry": { "type": "Point", "coordinates": [ -58.403292, -34.7758113, 0.0 ] } },
{ "type": "Feature", "properties": { "Name": "Carola Lorenzini & Jacinto Rosso", "description": "<img src=\"https://mymaps.usercontent.google.com/hostedimage/m/*/3AL_Y2X5Pct4SUJR0dcnBPSgawBAlKLTqXmvLsF0SjFb1rZ9_iI7iPIFqyZiaq9nnP4dtPnHWCN6eo93LeSQUXPVEJf9PPaTp8h891D91650i-DuK-7CvtXYQCTrl2wHJpiksdeu6KcbFjTMgN87bGT-FJUVXXCkuwecmKVSNw-yTx79PvTfZyv0teZLnU-2ByIe9q2Zr-xwGa-C8YLDBfB96JjZXYl9R_Ks-qyNmQBrlOd7WGAd-Xo8LylAx7MU26g?authuser=0&fife=s16383\" height=\"200\" width=\"auto\" /><br><br>Colocación realizada el día 22/03/2023, 1 (una) calzada completa de 6.5 mts.", "CGM": "Temperley" }, "geometry": { "type": "Point", "coordinates": [ -58.3887989, -34.7799678, 0.0 ] } },
{ "type": "Feature", "properties": { "Name": "Riobamba & Joaquín V. González", "description": "<img src=\"https://mymaps.usercontent.google.com/hostedimage/m/*/3AL_Y2X6JTT8vGJVAS4VlTw3nI3P9arivsBuUPHfHh0u1wgp_CkdS-63STdwZcBeLFpLeNpVVg5plrginikoP-xvM3ujgtvkUoCHlODMUyQgGdw_7rAclTXSxiPLjNQHehPa6ftqADFF4iUj54XQjdguL4vj7AVzhp-w1XMUYvVzvNPFpKk1ibHBv8lKiQnCe8jjNHGPJHQNysRCszPe1IPxIjw57rGY07HMe1d1KvBQAuUXbVSzOr4Uwp7jYIKvzcg?authuser=0&fife=s16383\" height=\"200\" width=\"auto\" /><br><br>Colocación realizada el día 10/04/2023, 1 (una) calzada completa de 6,5 mts.", "CGM": "Temperley" }, "geometry": { "type": "Point", "coordinates": [ -58.3832588, -34.7607855, 0.0 ] } },
{ "type": "Feature", "properties": { "Name": "Miguel Estanislao Soler & General José María Paz (y Lavalle)", "description": "<img src=\"https://mymaps.usercontent.google.com/hostedimage/m/*/3AL_Y2X66MpbxW_UaCJXbGu8jz-pPKw1Uvc7skAwYGrRTiiY7JeZLiqbdNV2iNGvnzZY0znu3pBiEVikZ9pSuMyEbaZXM5G9FLKSiQFxjdeCKiJKWc6VB51Tro9hcPjnIYCx-qEh0yJ8yxExiCFIcwast71StP3HlJF33Mlmm-_zsPKZqoTiPk2rfaUwsBPv9oTuCUsVowmOYU7D8K5p_krej7zITXEDB5OrXLNbUlIIOUQRqdRC6pgiaLUR8jaOA3Q?authuser=0&fife=s16383\" height=\"200\" width=\"auto\" /><br><br>Colocación realizada el día 08/5/2023, 1 (una) calzada completa de 9 mts.", "CGM": "Temperley" }, "geometry": { "type": "Point", "coordinates": [ -58.4084735, -34.7783226, 0.0 ] } },
{ "type": "Feature", "properties": { "Name": "General José María Paz & San Pedro", "description": "<img src=\"https://mymaps.usercontent.google.com/hostedimage/m/*/3AL_Y2X5bWnOZvd7-ABnqdISoilow83xWOA-sA0xY-DPgn_a2JMC-Muw43rMbhTo3eNplwwxg1BdkoreSNXfBX6FGv3DT4Qrf5i0Y1-TzrDS3tGQlGOPqkGhdwkjktSI6jJCBUR23wDjwqp8pKnPy8FX10JkaUkVkv4HdL9aZVj7kOm7pvKhU2Nn4k7W0TXhfOLvpCn3RyN8bG8RxvHjZCKiBA7a971w7w6sgEwqIPQ-aGgUfuQrPXc6H-rNblxvdyQ?authuser=0&fife=s16383\" height=\"200\" width=\"auto\" /><br><br>Colocación realizada el día 14/06/2023, 1 (una) calzada completa de 6 mts.", "CGM": "Temperley" }, "geometry": { "type": "Point", "coordinates": [ -58.4099406, -34.7790461, 0.0 ] } },
{ "type": "Feature", "properties": { "Name": "San Pedro & General José María Paz", "description": "Colocación realizada el día 14/06/2023, 1 (una) calzada completa de 6 mts.", "CGM": "Temperley" }, "geometry": { "type": "Point", "coordinates": [ -58.409785, -34.7788347, 0.0 ] } },
{ "type": "Feature", "properties": { "Name": "Dorrego & J. M. Fernández ", "description": "<img src=\"https://mymaps.usercontent.google.com/hostedimage/m/*/3AL_Y2X5deZXDdtp12VVvwa3vDVAdEr1aOK1fp40j-F-Mc-vm0EA5qlx6y7c-NMAwsjkK0Tz2ZVt-0acgUUj0uLVheY7WEsy8TA59HiQmoDWtej25MaFJ8Nuamf3teq7_ISI7jOXs973tK-4-kqbBBuXCdHI-L0TZZu62LSe3e7LanSawd63ChEYvbTdnoOLEtCoDkwcFGxYxQL75icMh0jbLBQy_Pas1uVIgCYzOmhudGE4uytU4G25h4IAa-I1mMw?authuser=0&fife=s16383\" height=\"200\" width=\"auto\" /><br><br>Colocación realizada el día 05/07/2023, 1 (una) calzada completa de 5,5 mts.", "CGM": "Temperley" }, "geometry": { "type": "Point", "coordinates": [ -58.4063424, -34.7746199, 0.0 ] } },
{ "type": "Feature", "properties": { "Name": "J.M Férnandez & Dorrego ", "description": "<img src=\"https://mymaps.usercontent.google.com/hostedimage/m/*/3AL_Y2X5CdxVs8JFUzBglBVukgvmdoimuaheqHTFSlKM7oTuceURBKofoTktGi7z3Jj-8m_GRSukNsvtQrdAgdqmj_HRkkLC83SOLmhKyoYIQtx6qVkdDHHVewpJdYXcQYJ5NDWY1yp4tDCftZaGt119iSyn6sLPmxAwCR99VzRwmQxdUZpownU7LKRrXYiCSkUYLKZetfW0qzL4Jo6OanLIio--6GluH4UdiofY7V5ood7ywT1LclgxvIWlxSRmHYA?authuser=0&fife=s16383\" height=\"200\" width=\"auto\" /><br><br>Colocación realizada el día 05/07/2023, 1 (una) calzada completa de 5,5 mts.", "CGM": "Temperley" }, "geometry": { "type": "Point", "coordinates": [ -58.4063034, -34.7744087, 0.0 ] } },
{ "type": "Feature", "properties": { "Name": "Lavalle & San Carlos", "description": "<img src=\"https://mymaps.usercontent.google.com/hostedimage/m/*/3AL_Y2X4dI7rcZUwPFtE-RHnl0MCMEJVTAkAYTIy6Mhl01JIFkQKjCVZIlx_Xcv3E5rLwfjZVo86dKOdskEwQXzg4MUWu_4aMFDLK5ZXWCXOFzp-ueJvPN52FmoT1CnH8zTUr1SSqNrIUZx9siyjaDMdaaKCdK16nBKmhIkrKYJkY2VKHPVbDnoR08sVjab-DJjA79Mll1ISy1iXfyHnypw9qHM76b7PT2C7wyJCk8UPAqdOD3n4l2ACP7PdNoQCe0g?authuser=0&fife=s16383\" height=\"200\" width=\"auto\" /><br><br>Colocación realizada el día 05/07/2023, 1 (una) calzada completa de 5,5 mts.", "CGM": "Temperley" }, "geometry": { "type": "Point", "coordinates": [ -58.4117475, -34.7785016, 0.0 ] } },
{ "type": "Feature", "properties": { "Name": "José Martí & Alzaga", "description": "<img src=\"https://mymaps.usercontent.google.com/hostedimage/m/*/3AL_Y2X42wiE7i94I4jJVBTsneVU22838_02UfJUeAb3smazPTd2KA1zMStyT3dzb7qIZk19F2YPC-wy9qStInEJ7mE9-AXz23mmVm8Zm2YD3KnrM8M5N7aQor8s6BLYvmjdt1YEiQAgnzOeFz3K5WORJXG4oUTpe0nw9vy4q3JMEUPAP7Y6nbTXIGFHkU-7LY17hY7LrE7Qm_vM8V5g24qDRONJs6v6-uBiK8GekgMX5I1UxJUDrS4ie0lv3K0Ojxw?authuser=0&fife=s16383\" height=\"200\" width=\"auto\" /><br><br>Colocación realizada el día 10/11/2023, 1 (una) calzada completa de 6,5 mts.", "CGM": "Temperley" }, "geometry": { "type": "Point", "coordinates": [ -58.3860436, -34.7776245, 0.0 ] } },
{ "type": "Feature", "properties": { "Name": "Zeballos & Prospero G. Allemandri", "description": "Nombre: <br>Descripción: ", "CGM": "Temperley" }, "geometry": { "type": "Point", "coordinates": [ -58.3786582, -34.7657097, 0.0 ] } },
{ "type": "Feature", "properties": { "Name": "Zeballos & 14 de Julio", "description": "Nombre: <br>Descripción: ", "CGM": "Temperley" }, "geometry": { "type": "Point", "coordinates": [ -58.378132, -34.7664916, 0.0 ] } },
{ "type": "Feature", "properties": { "Name": "General Güemes & Riobamba", "description": "Nombre: <br>Descripción: ", "CGM": "Temperley" }, "geometry": { "type": "Point", "coordinates": [ -58.3844268, -34.7615986, 0.0 ] } },
{ "type": "Feature", "properties": { "Name": "Jacinto Rosso y Albarracin", "description": null, "CGM": "Temperley" }, "geometry": { "type": "Point", "coordinates": [ -58.386326, -34.77883, 0.0 ] } },
{ "type": "Feature", "properties": { "Name": "Jacinto Rosso y Albarracín ", "description": null, "CGM": "Temperley" }, "geometry": { "type": "Point", "coordinates": [ -58.386463, -34.778909, 0.0 ] } },
{ "type": "Feature", "properties": { "Name": "Guido Spano y Gral. José María Paz", "description": null, "CGM": "Temperley" }, "geometry": { "type": "Point", "coordinates": [ -58.407241, -34.777738, 0.0 ] } },
{ "type": "Feature", "properties": { "Name": "Albarracín e Indalecio Gómez", "description": null, "CGM": "Temperley" }, "geometry": { "type": "Point", "coordinates": [ -58.384716, -34.781065, 0.0 ] } },
{ "type": "Feature", "properties": { "Name": "Condarco y Vicente Stea", "description": null, "CGM": "Temperley" }, "geometry": { "type": "Point", "coordinates": [ -58.389445, -34.777338, 0.0 ] } },
{ "type": "Feature", "properties": { "Name": "Avellaneda y Miguel E. Soler", "description": null, "CGM": "Temperley" }, "geometry": { "type": "Point", "coordinates": [ -58.407508, -34.779088, 0.0 ] } },
{ "type": "Feature", "properties": { "Name": "Huergo y Avellaneda ", "description": null, "CGM": "Temperley" }, "geometry": { "type": "Point", "coordinates": [ -58.411299, -34.781216, 0.0 ] } },
{ "type": "Feature", "properties": { "Name": "Alzaga y J. Rosso", "description": null, "CGM": "Temperley" }, "geometry": { "type": "Point", "coordinates": [ -58.385371, -34.778194, 0.0 ] } },
{ "type": "Feature", "properties": { "Name": "Dorrego y Pichincha", "description": null, "CGM": "Temperley" }, "geometry": { "type": "Point", "coordinates": [ -58.402024, -34.779893, 0.0 ] } },
{ "type": "Feature", "properties": { "Name": "Gral. José María Paz y San Benito", "description": "5 Mts", "CGM": "Temperley" }, "geometry": { "type": "Point", "coordinates": [ -58.420196, -34.784521, 0.0 ] } },
{ "type": "Feature", "properties": { "Name": "Presbisterio J. Russo y San Blas ", "description": "5.5 Mts", "CGM": "Temperley" }, "geometry": { "type": "Point", "coordinates": [ -58.41824, -34.784928, 0.0 ] } },
{ "type": "Feature", "properties": { "Name": "San Blas y Presbisterio J. Russo", "description": "4.5 Mts", "CGM": "Temperley" }, "geometry": { "type": "Point", "coordinates": [ -58.418201, -34.784877, 0.0 ] } },
{ "type": "Feature", "properties": { "Name": "Rubén de Rosas y Senillosa", "description": "6.5 Mts", "CGM": "Temperley" }, "geometry": { "type": "Point", "coordinates": [ -58.367588, -34.772156, 0.0 ] } },
{ "type": "Feature", "properties": { "Name": "Rubén de Rosas y Senillosa", "description": "6.5 Mts", "CGM": "Temperley" }, "geometry": { "type": "Point", "coordinates": [ -58.367499, -34.772108, 0.0 ] } },
{ "type": "Feature", "properties": { "Name": "Indalecio Gómez y Blanco Encalada", "description": "5 Mts", "CGM": "Temperley" }, "geometry": { "type": "Point", "coordinates": [ -58.38184, -34.779762, 0.0 ] } },
{ "type": "Feature", "properties": { "Name": "Don Bosco y Juramento", "description": "6.5 Mts", "CGM": "Temperley" }, "geometry": { "type": "Point", "coordinates": [ -58.374041, -34.778054, 0.0 ] } },
{ "type": "Feature", "properties": { "Name": "Don Bosco y Juramento", "description": "6.5 Mts", "CGM": "Temperley" }, "geometry": { "type": "Point", "coordinates": [ -58.374111, -34.777958, 0.0 ] } }
]
}
