{
"type": "FeatureCollection",
"name": "reductores_Llavallol",
"crs": { "type": "name", "properties": { "name": "urn:ogc:def:crs:OGC:1.3:CRS84" } },
"features": [
{ "type": "Feature", "properties": { "Name": "Garibaldi & Luzuriaga", "description": "Colocación realizada el día 22/7/2021, 1 (una) calzada completa.", "CGM": "Llavallol" }, "geometry": { "type": "Point", "coordinates": [ -58.4365926, -34.7867826, 0.0 ] } },
{ "type": "Feature", "properties": { "Name": "Garibaldi & Luzuriaga", "description": "Colocación realizada el día 22/7/2021, 1 (una) calzada completa.", "CGM": "Llavallol" }, "geometry": { "type": "Point", "coordinates": [ -58.4363752, -34.7866635, 0.0 ] } },
{ "type": "Feature", "properties": { "Name": "A.Pretti & General Frías", "description": "Colocación realizada el día 28/7/2021, 1 (una) calzada completa.", "CGM": "Llavallol" }, "geometry": { "type": "Point", "coordinates": [ -58.4125398, -34.7958078, 0.0 ] } },
{ "type": "Feature", "properties": { "Name": "Antonio Sastre & General Necochea", "description": "Colocación realizada el día 09/02/2022, 1 (una) calzada completa.", "CGM": "Llavallol" }, "geometry": { "type": "Point", "coordinates": [ -58.4224841, -34.810904, 0.0 ] } },
{ "type": "Feature", "properties": { "Name": "Antonio Sastre & General Necochea", "description": "Colocación realizada el día 09/02/2022, 1 (una) calzada completa.", "CGM": "Llavallol" }, "geometry": { "type": "Point", "coordinates": [ -58.4219779, -34.8106051, 0.0 ] } },
{ "type": "Feature", "properties": { "Name": "Inca & Padre Javier", "description": "Colocación realizada el día 09/02/2022, 1 (una) calzada completa.", "CGM": "Llavallol" }, "geometry": { "type": "Point", "coordinates": [ -58.4341978, -34.8087062, 0.0 ] } },
{ "type": "Feature", "properties": { "Name": "Luzuriaga & Comandante Luis Piedrabuena", "description": "Colocación realizada el día 09/02/2022, 1 (una) calzada completa.", "CGM": "Llavallol" }, "geometry": { "type": "Point", "coordinates": [ -58.4308605, -34.7942182, 0.0 ] } },
{ "type": "Feature", "properties": { "Name": "Boulevard Santa Catalina & Húsares", "description": "Colocación realizada el día 02/03/2022, 1 (una) calzada completa.", "CGM": "Llavallol" }, "geometry": { "type": "Point", "coordinates": [ -58.4385542, -34.7910042, 0.0 ] } },
{ "type": "Feature", "properties": { "Name": "Boulevard Santa Catalina & Húsares", "description": "Colocación realizada el día 02/03/2022, 1 (una) calzada completa.", "CGM": "Llavallol" }, "geometry": { "type": "Point", "coordinates": [ -58.4381139, -34.791547, 0.0 ] } },
{ "type": "Feature", "properties": { "Name": "Bahía Blanca & Antonio Sastre", "description": "Colocación realizada el día 02/03/2022, 1 (una) calzada completa.", "CGM": "Llavallol" }, "geometry": { "type": "Point", "coordinates": [ -58.4303682, -34.8150733, 0.0 ] } },
{ "type": "Feature", "properties": { "Name": "Rondeau & Luis Davila", "description": "<img src=\"https://mymaps.usercontent.google.com/hostedimage/m/*/3AL_Y2X6KVNsgvQ9yjyW_JqyurO_1Kk2av_Uxdknnp5gsfsb301RhJX91ZXF5CKnq1MoyRiMPONviQah2XUny9UK-dLPBfvMj060nL26ARcA4zPe64Gf-4LVCl68snsZwL_jE-58Zz79hUekedy0gjlFvuKP0Py3Elu9KPHtwEMhuqrlhkxdv87MMCIpo43BieMt5_yxxN3uYmgq1O6WpFzrusMbCCnsWiNgF3PzLahgE850-T-w9eO1KQeG5Mhcn1Q?authuser=0&fife=s16383\" height=\"200\" width=\"auto\" /><br><br>Colocación realizada el día 27/07/2023, 1 (una) calzada completa de 4,5 mts.", "CGM": "Llavallol" }, "geometry": { "type": "Point", "coordinates": [ -58.416284, -34.8066032, 0.0 ] } },
{ "type": "Feature", "properties": { "Name": "Rondeau & Antonio Sastre", "description": "<img src=\"https://mymaps.usercontent.google.com/hostedimage/m/*/3AL_Y2X4jszZR2KP5s26LEBi9oFywNBxFTiI3KwIMDz6WMZVgTM18aEAaIi8gn8JDLbKRxXQ7pFWRf6xqKJiwJDuPqs0rT5AZQC_kGoOG84OzyeiwZ0SuYaA8nt2A1_F5Ymc3SsEfnelxQyEkNx5g_j-xLlgp10GccNk8onSD2Ke8bH960Ga2_8ees09UxJirM2Om8Laqhh-01KoxjjjWu0RO4sFL7k9tg7wHU3QKn3Rl4fUwNPxjTfIb2JTBC7W_pA?authuser=0&fife=s16383\" height=\"200\" width=\"auto\" /><br><br>Colocación realizada el día 27/07/2023, 1 (una) calzada completa de 4,5 mts.", "CGM": "Llavallol" }, "geometry": { "type": "Point", "coordinates": [ -58.4156806, -34.807363, 0.0 ] } },
{ "type": "Feature", "properties": { "Name": "Hector Flores & Polonia (y Ramón Pareta)", "description": "<img src=\"https://mymaps.usercontent.google.com/hostedimage/m/*/3AL_Y2X4B9PMazHjtdnK9gbGKyt5T1Mpi3btoMA06zJp7xAKCLosqu1Hi8zL9FlKtPzNnfeWYjnXt63cJtX5x719mOn1liIGsOxh3-sUauyqomSWy18qKEa84jbT8fXEyOqYxsXbRqm6e0vUAWPbDON3-O8hOPb3OyWTbsz3lL4JrHAx-wqBMtGct3GfFjuAC5lBK1d1HXzipoIlrkCQ29T6EDewScV32Ym74mV-tnS9A0kvmy8KoPHBtykv4G6bzRw?authuser=0&fife=s16383\" height=\"200\" width=\"auto\" /><br><br>Colocación realizada el día 29/9/2023, 1 (una) calzada completa de 5 mts.", "CGM": "Llavallol" }, "geometry": { "type": "Point", "coordinates": [ -58.4259737, -34.8056599, 0.0 ] } },
{ "type": "Feature", "properties": { "Name": "Hector Flores & Ramón Pareta (y Polonia)", "description": "<img src=\"https://mymaps.usercontent.google.com/hostedimage/m/*/3AL_Y2X6X3aJRzlm7Wfu0GzY0SYuL33i_yj8aUKS8SleRfRK7k6E7R2tuyZ93GJ7TiaX8TNP1c-7e3y-iurHoVSa-3yAQR28yeYRs8cT19ittKBLozct86tdfssXJuuyuIcZHvoY7eckJ-7zk_3ELLb-tq7eFZ6Kzbd0Yw7GKjyVCbniAFUyBBdmjzpS3xxUMlVXVhksTgkt7B2SBOSyzYr3gfzJWQ_QYomr_6SPxj1HTm8o5ykfa3QQ8M4Wkv-MH3A?authuser=0&fife=s16383\" height=\"200\" width=\"auto\" /><br><br>Colocación realizada el día 29/9/2023, 1 (una) calzada completa de 5 mts.", "CGM": "Llavallol" }, "geometry": { "type": "Point", "coordinates": [ -58.4252816, -34.8052988, 0.0 ] } },
{ "type": "Feature", "properties": { "Name": "Hector Flores & Ramón Pareta (y Polonia)", "description": "<img src=\"https://mymaps.usercontent.google.com/hostedimage/m/*/3AL_Y2X7_Qp-ijaj2_yOtCUG3tsk91wQynRKB4wK4qZHwyyze9ntopsFl1ml1HfIzmN7DRv5n5HGP6D9mgcUyutPuZ3tDlgpxqcjOzmqABgo5dgdpBBBqW3Xr67AAeavQMblsaDCOOBvhY3sXGN0Jmn08qVCut7DgTM-wh6veq_cdxBvu9X2IVMaUwdgD6JSjEETyLiacbz5uc08J7zvDn9KFUaKG1ukbQ1dlvHWUgV871YGQBAOp7g56gKofxoUcNg?authuser=0&fife=s16383\" height=\"200\" width=\"auto\" /><br><br>Colocación realizada el día 09/10/2023, 1 (una) calzada completa de 5.5 mts.", "CGM": "Llavallol" }, "geometry": { "type": "Point", "coordinates": [ -58.4242657, -34.8049421, 0.0 ] } },
{ "type": "Feature", "properties": { "Name": "Hector Flores & Polonia (y Ramón Pareta)", "description": "<img src=\"https://mymaps.usercontent.google.com/hostedimage/m/*/3AL_Y2X5jGsyLCT0zR2q7sZr1untBjgWsjIGq7XpeH3qAiw_tcEa0TKFEcnR0Z7pSAg1EcrIkriVN8yEqgBTNU3_3Y8SGseeZuerXBuQdjNf0Q-nOZ3CC79V4SP1JTpW5zMXkKK-x40fvyy9gsgC04kZLITkpV2YxrRgv5jsZ_xVh3RD8dMM_OshQe07Yiyz7dyLyvSzSJOcZ_kz83MlKtW4z6aNF9T31MC0hpOVZm-NumiejcmeQ6E1M081_E8gBbg?authuser=0&fife=s16383\" height=\"200\" width=\"auto\" /><br><br>Colocación realizada el día 09/10/2023, 1 (una) calzada completa de 5.5 mts.", "CGM": "Llavallol" }, "geometry": { "type": "Point", "coordinates": [ -58.4266201, -34.806, 0.0 ] } },
{ "type": "Feature", "properties": { "Name": "Pobladora & Wilde", "description": "Nombre: <br>Descripción: ", "CGM": "Llavallol" }, "geometry": { "type": "Point", "coordinates": [ -58.4308446, -34.8112093, 0.0 ] } },
{ "type": "Feature", "properties": { "Name": "Pobladora & Wilde", "description": "Nombre: <br>Descripción: ", "CGM": "Llavallol" }, "geometry": { "type": "Point", "coordinates": [ -58.4310914, -34.8113393, 0.0 ] } },
{ "type": "Feature", "properties": { "Name": "General Frías & A.Pretti", "description": "Nombre: General Frías & A.Pretti<br>Descripción: ", "CGM": "Llavallol" }, "geometry": { "type": "Point", "coordinates": [ -58.4125237, -34.7958915, 0.0 ] } },
{ "type": "Feature", "properties": { "Name": "Mariño & Aragón", "description": null, "CGM": "Llavallol" }, "geometry": { "type": "Point", "coordinates": [ -58.4179141, -34.7901349, 0.0 ] } },
{ "type": "Feature", "properties": { "Name": "Mariño & Aragón", "description": null, "CGM": "Llavallol" }, "geometry": { "type": "Point", "coordinates": [ -58.4181555, -34.7902583, 0.0 ] } },
{ "type": "Feature", "properties": { "Name": "Túpac Amaru y Silva ", "description": null, "CGM": "Llavallol" }, "geometry": { "type": "Point", "coordinates": [ -58.423417, -34.812523, 0.0 ] } },
{ "type": "Feature", "properties": { "Name": "Luzuriaga y El Rosedal", "description": null, "CGM": "Llavallol" }, "geometry": { "type": "Point", "coordinates": [ -58.431621, -34.79319, 0.0 ] } },
{ "type": "Feature", "properties": { "Name": "Luzuriaga y El Rosedal", "description": null, "CGM": "Llavallol" }, "geometry": { "type": "Point", "coordinates": [ -58.431481, -34.793348, 0.0 ] } },
{ "type": "Feature", "properties": { "Name": "Luzuriaga y Moldes", "description": null, "CGM": "Llavallol" }, "geometry": { "type": "Point", "coordinates": [ -58.432989, -34.791315, 0.0 ] } },
{ "type": "Feature", "properties": { "Name": "Luzuriaga y Moldes", "description": null, "CGM": "Llavallol" }, "geometry": { "type": "Point", "coordinates": [ -58.433104, -34.791187, 0.0 ] } },
{ "type": "Feature", "properties": { "Name": "N. de la Peña y Moldes", "description": null, "CGM": "Llavallol" }, "geometry": { "type": "Point", "coordinates": [ -58.429148, -34.789158, 0.0 ] } },
{ "type": "Feature", "properties": { "Name": "Melber y Mendoza", "description": null, "CGM": "Llavallol" }, "geometry": { "type": "Point", "coordinates": [ -58.414056, -34.802674, 0.0 ] } },
{ "type": "Feature", "properties": { "Name": "Melber y Mendoza", "description": null, "CGM": "Llavallol" }, "geometry": { "type": "Point", "coordinates": [ -58.413882, -34.802597, 0.0 ] } },
{ "type": "Feature", "properties": { "Name": "Melber y Bahía Blanca", "description": null, "CGM": "Llavallol" }, "geometry": { "type": "Point", "coordinates": [ -58.43248, -34.81206, 0.0 ] } },
{ "type": "Feature", "properties": { "Name": "Moldes y N. de la Peña", "description": null, "CGM": "Llavallol" }, "geometry": { "type": "Point", "coordinates": [ -58.428985, -34.789224, 0.0 ] } },
{ "type": "Feature", "properties": { "Name": "Melber y Bahía Blanca", "description": null, "CGM": "Llavallol" }, "geometry": { "type": "Point", "coordinates": [ -58.432635, -34.812139, 0.0 ] } },
{ "type": "Feature", "properties": { "Name": "Olleros y 9 de Febrero", "description": null, "CGM": "Llavallol" }, "geometry": { "type": "Point", "coordinates": [ -58.434925, -34.793614, 0.0 ] } },
{ "type": "Feature", "properties": { "Name": "Túpac Amaru y Silva", "description": null, "CGM": "Llavallol" }, "geometry": { "type": "Point", "coordinates": [ -58.423484, -34.812433, 0.0 ] } },
{ "type": "Feature", "properties": { "Name": "Santa Catalina y Moldes", "description": "8 Mts.", "CGM": "Llavallol" }, "geometry": { "type": "Point", "coordinates": [ -58.436976, -34.793188, 0.0 ] } },
{ "type": "Feature", "properties": { "Name": "Santa Catalina y Moldes", "description": "8 Mts.", "CGM": "Llavallol" }, "geometry": { "type": "Point", "coordinates": [ -58.436904, -34.793296, 0.0 ] } },
{ "type": "Feature", "properties": { "Name": "9 de Febrero y Olleros ", "description": "6.5 Mts.", "CGM": "Llavallol" }, "geometry": { "type": "Point", "coordinates": [ -58.434829, -34.793652, 0.0 ] } },
{ "type": "Feature", "properties": { "Name": "Luzuriaga y Arribeños", "description": "6 Mts.", "CGM": "Llavallol" }, "geometry": { "type": "Point", "coordinates": [ -58.433876, -34.790163, 0.0 ] } },
{ "type": "Feature", "properties": { "Name": "Nestor de la Peña y Húsares", "description": "PENDIENTE", "CGM": "Llavallol" }, "geometry": { "type": "Point", "coordinates": [ -58.430662, -34.787135, 0.0 ] } },
{ "type": "Feature", "properties": { "Name": "La Huella y Moldes", "description": "PENDIENTE.", "CGM": "Llavallol" }, "geometry": { "type": "Point", "coordinates": [ -58.42453, -34.787067, 0.0 ] } },
{ "type": "Feature", "properties": { "Name": "Machado de Asis y 25 de Mayo", "description": "PENDIENTE.", "CGM": "Llavallol" }, "geometry": { "type": "Point", "coordinates": [ -58.421373, -34.789417, 0.0 ] } },
{ "type": "Feature", "properties": { "Name": "Ascasubi y Plazoleta Doyhenard", "description": "PENDIENTA.", "CGM": "Llavallol" }, "geometry": { "type": "Point", "coordinates": [ -58.424109, -34.801729, 0.0 ] } }
]
}
