{
"type": "FeatureCollection",
"name": "reductores_Centenario",
"crs": { "type": "name", "properties": { "name": "urn:ogc:def:crs:OGC:1.3:CRS84" } },
"features": [
{ "type": "Feature", "properties": { "Name": "Falleres & Capitán Sarmiento", "description": "Colocación realizada el día 12/1/2022, 1 (una) calzada completa.", "CGM": "Centenario" }, "geometry": { "type": "Point", "coordinates": [ -58.4346782, -34.7344161, 0.0 ] } },
{ "type": "Feature", "properties": { "Name": "Falleres & Capitán Sarmiento", "description": "Colocación realizada el día 12/1/2022, 1 (una) calzada completa.", "CGM": "Centenario" }, "geometry": { "type": "Point", "coordinates": [ -58.4345789, -34.7345429, 0.0 ] } },
{ "type": "Feature", "properties": { "Name": "Capitán Sarmiento & Falleres", "description": "Colocación realizada el día 12/1/2022, 1 (una) calzada completa.", "CGM": "Centenario" }, "geometry": { "type": "Point", "coordinates": [ -58.4346943, -34.7345197, 0.0 ] } },
{ "type": "Feature", "properties": { "Name": "Capitán Sarmiento & Falleres", "description": "Colocación realizada el día 12/1/2022, 1 (una) calzada completa.", "CGM": "Centenario" }, "geometry": { "type": "Point", "coordinates": [ -58.4345606, -34.7344492, 0.0 ] } },
{ "type": "Feature", "properties": { "Name": "José Luis Murature & Virgen de Itatí", "description": "Colocación realizada el día 12/1/2022, 1 (una) calzada completa.", "CGM": "Centenario" }, "geometry": { "type": "Point", "coordinates": [ -58.4288298, -34.7190336, 0.0 ] } },
{ "type": "Feature", "properties": { "Name": "Miguel de Unamuno & La Haya", "description": "Colocación realizada el día 12/1/2022, 1 (una) calzada completa.", "CGM": "Centenario" }, "geometry": { "type": "Point", "coordinates": [ -58.436897, -34.7211133, 0.0 ] } },
{ "type": "Feature", "properties": { "Name": "Miguel de Unamuno & La Haya", "description": "Colocación realizada el día 12/1/2022, 1 (una) calzada completa.", "CGM": "Centenario" }, "geometry": { "type": "Point", "coordinates": [ -58.4366663, -34.7213549, 0.0 ] } },
{ "type": "Feature", "properties": { "Name": "La Haya & Benito Pérez Galdos", "description": "Colocación realizada el día 14/1/2022, 1 (una) calzada completa.", "CGM": "Centenario" }, "geometry": { "type": "Point", "coordinates": [ -58.4381003, -34.7217278, 0.0 ] } },
{ "type": "Feature", "properties": { "Name": "La Haya & Benito Pérez Galdos", "description": "Colocación realizada el día 14/1/2022, 1 (una) calzada completa.", "CGM": "Centenario" }, "geometry": { "type": "Point", "coordinates": [ -58.4378568, -34.7219875, 0.0 ] } },
{ "type": "Feature", "properties": { "Name": "Ámsterdam & Paraguay", "description": "Colocación realizada el día 18/02/2022, 1 (una) calzada completa.", "CGM": "Centenario" }, "geometry": { "type": "Point", "coordinates": [ -58.4277453, -34.7258582, 0.0 ] } },
{ "type": "Feature", "properties": { "Name": "Ámsterdam & Antonio Filardi", "description": "Colocación realizada el día 18/02/2022, 1 (una) calzada completa.", "CGM": "Centenario" }, "geometry": { "type": "Point", "coordinates": [ -58.4286843, -34.726329, 0.0 ] } },
{ "type": "Feature", "properties": { "Name": "Barcelona & Antonio Filardi", "description": "Colocación realizada el día 18/02/2022, 1 (una) calzada completa.", "CGM": "Centenario" }, "geometry": { "type": "Point", "coordinates": [ -58.4291716, -34.7257434, 0.0 ] } },
{ "type": "Feature", "properties": { "Name": "Barcelona & Paraguay", "description": "Colocación realizada el día 18/02/2022, 1 (una) calzada completa.", "CGM": "Centenario" }, "geometry": { "type": "Point", "coordinates": [ -58.4282699, -34.7252773, 0.0 ] } },
{ "type": "Feature", "properties": { "Name": "Benito Pérez Galdos & Ostende", "description": "Colocación realizada el día 04/03/2022, 1 (una) calzada completa.", "CGM": "Centenario" }, "geometry": { "type": "Point", "coordinates": [ -58.4374711, -34.7225298, 0.0 ] } },
{ "type": "Feature", "properties": { "Name": "Antonio Filardi & Barcelona", "description": "Colocación realizada el día 10/03/2022, 1 (una) calzada completa.", "CGM": "Centenario" }, "geometry": { "type": "Point", "coordinates": [ -58.4293244, -34.7256794, 0.0 ] } },
{ "type": "Feature", "properties": { "Name": "Rawson & José Luis Murature", "description": "Colocación realizada el día 10/03/2022, 1 (una) calzada completa.", "CGM": "Centenario" }, "geometry": { "type": "Point", "coordinates": [ -58.4230589, -34.7268218, 0.0 ] } },
{ "type": "Feature", "properties": { "Name": "General Conesa & Rawson", "description": "Colocación realizada el día 10/03/2022, 1 (una) calzada completa.", "CGM": "Centenario" }, "geometry": { "type": "Point", "coordinates": [ -58.4217598, -34.7259655, 0.0 ] } },
{ "type": "Feature", "properties": { "Name": "Falleres & Puerto Argentino", "description": "Colocación realizada el día 29/04/2022, 1 (una) calzada completa.", "CGM": "Centenario" }, "geometry": { "type": "Point", "coordinates": [ -58.4362814, -34.7323174, 0.0 ] } },
{ "type": "Feature", "properties": { "Name": "Puerto Argentino & Falleres", "description": "Colocación realizada el día 29/04/2022, 1 (una) calzada completa.", "CGM": "Centenario" }, "geometry": { "type": "Point", "coordinates": [ -58.4362599, -34.7322656, 0.0 ] } },
{ "type": "Feature", "properties": { "Name": "Puerto Argentino & Calle Gaspar Núñez de Arce", "description": "Colocación realizada el día 29/04/2022, 1 (una) calzada completa.", "CGM": "Centenario" }, "geometry": { "type": "Point", "coordinates": [ -58.4351867, -34.7317013, 0.0 ] } },
{ "type": "Feature", "properties": { "Name": "El Plumerillo & Rawson", "description": "Colocación realizada el día 29/04/2022, 1 (una) calzada completa.", "CGM": "Centenario" }, "geometry": { "type": "Point", "coordinates": [ -58.4242408, -34.7272848, 0.0 ] } },
{ "type": "Feature", "properties": { "Name": "Carlos Glade & J. Zamora", "description": "Colocación realizada el día 19/05/2022, 1 (una) calzada completa.", "CGM": "Centenario" }, "geometry": { "type": "Point", "coordinates": [ -58.4168351, -34.7338668, 0.0 ] } },
{ "type": "Feature", "properties": { "Name": "Sommaruga & Carlos Glade", "description": "Colocación realizada el día 19/05/2022, 1 (una) calzada completa.", "CGM": "Centenario" }, "geometry": { "type": "Point", "coordinates": [ -58.4175614, -34.7344874, 0.0 ] } },
{ "type": "Feature", "properties": { "Name": "Emiliano Zapata & Constitución", "description": "Colocación realizada el día 17/08/2022, 1 (una) calzada completa de 6,5 mts.", "CGM": "Centenario" }, "geometry": { "type": "Point", "coordinates": [ -58.4207834, -34.731661, 0.0 ] } },
{ "type": "Feature", "properties": { "Name": "Constitución & Emiliano Zapata", "description": "Colocación realizada el día 17/08/2022, 1 (una) calzada completa de 8,5 mts.", "CGM": "Centenario" }, "geometry": { "type": "Point", "coordinates": [ -58.4207834, -34.731661, 0.0 ] } },
{ "type": "Feature", "properties": { "Name": "Capitán Sarmiento & Gabriel Miró", "description": "Colocación realizada el día 17/08/2022, 1 (una) calzada completa de 5 mts.", "CGM": "Centenario" }, "geometry": { "type": "Point", "coordinates": [ -58.4324262, -34.7332833, 0.0 ] } },
{ "type": "Feature", "properties": { "Name": "Gabriel Miró & Alfredo L. Palacios", "description": "Colocación realizada el día 17/08/2022, 1 (una) calzada completa de 4,5 mts.", "CGM": "Centenario" }, "geometry": { "type": "Point", "coordinates": [ -58.4316743, -34.7342928, 0.0 ] } },
{ "type": "Feature", "properties": { "Name": "Paraguay & Amberes", "description": "Colocación realizada el día 17/08/2022, 1 (una) calzada completa de 6,5 mts.", "CGM": "Centenario" }, "geometry": { "type": "Point", "coordinates": [ -58.4300418, -34.7230095, 0.0 ] } },
{ "type": "Feature", "properties": { "Name": "Amberes & Mario Bravo", "description": "Colocación realizada el día 17/08/2022, 1 (una) calzada completa de 6,5 mts.", "CGM": "Centenario" }, "geometry": { "type": "Point", "coordinates": [ -58.4291251, -34.7225382, 0.0 ] } },
{ "type": "Feature", "properties": { "Name": "Amberes & Antonio Filardi", "description": "Colocación realizada el día 17/08/2022, 1 (una) calzada completa de 6,5 mts.", "CGM": "Centenario" }, "geometry": { "type": "Point", "coordinates": [ -58.4309838, -34.7234891, 0.0 ] } },
{ "type": "Feature", "properties": { "Name": "Amberes & Darwin", "description": "Colocación realizada el día 17/08/2022, 1 (una) calzada completa de 6 mts.", "CGM": "Centenario" }, "geometry": { "type": "Point", "coordinates": [ -58.4247512, -34.7199921, 0.0 ] } },
{ "type": "Feature", "properties": { "Name": "El Plumerillo & Ejercito de los Andes", "description": "Colocación realizada el día 07/10/2022, 1 (una) calzada completa de 8 mts.", "CGM": "Centenario" }, "geometry": { "type": "Point", "coordinates": [ -58.432775, -34.7161592, 0.0 ] } },
{ "type": "Feature", "properties": { "Name": "Mario Bravo & Bucarest", "description": "Colocación realizada el día 27/12/2022, 1 (una) calzada completa de 6,5 mts.", "CGM": "Centenario" }, "geometry": { "type": "Point", "coordinates": [ -58.4326692, -34.7185258, 0.0 ] } },
{ "type": "Feature", "properties": { "Name": "Mario Bravo & Bucarest", "description": "Colocación realizada el día 27/12/2022, 1 (una) calzada completa de 6,5 mts.", "CGM": "Centenario" }, "geometry": { "type": "Point", "coordinates": [ -58.4325056, -34.7187121, 0.0 ] } },
{ "type": "Feature", "properties": { "Name": "Darwin & Bucarest", "description": "Colocación realizada el día 27/12/2022, 1 (una) calzada completa de 6,5 mts.", "CGM": "Centenario" }, "geometry": { "type": "Point", "coordinates": [ -58.4277329, -34.7161284, 0.0 ] } },
{ "type": "Feature", "properties": { "Name": "Francisco de Morazan & Barcelona", "description": "Colocación realizada el día 27/12/2022, 1 (una) calzada completa de 6,5 mts.", "CGM": "Centenario" }, "geometry": { "type": "Point", "coordinates": [ -58.4302695, -34.7261528, 0.0 ] } },
{ "type": "Feature", "properties": { "Name": "Francisco de Morazan & Barcelona", "description": "Colocación realizada el día 27/12/2022, 1 (una) calzada completa de 6,5 mts.", "CGM": "Centenario" }, "geometry": { "type": "Point", "coordinates": [ -58.430108, -34.7263432, 0.0 ] } },
{ "type": "Feature", "properties": { "Name": "Calle Gaspar Núñez de Arce & Rawson", "description": "Colocación realizada el día 27/12/2022, 1 (una) calzada completa de 5 mts.", "CGM": "Centenario" }, "geometry": { "type": "Point", "coordinates": [ -58.4344291, -34.7326841, 0.0 ] } },
{ "type": "Feature", "properties": { "Name": "Calle Gaspar Núñez de Arce & Rawson", "description": "Colocación realizada el día 27/12/2022, 1 (una) calzada completa de 5 mts.", "CGM": "Centenario" }, "geometry": { "type": "Point", "coordinates": [ -58.4342601, -34.7329288, 0.0 ] } },
{ "type": "Feature", "properties": { "Name": "Falleres & Rawson", "description": "Colocación realizada el día 27/12/2022, 1 (una) calzada completa de 6.5 mts.", "CGM": "Centenario" }, "geometry": { "type": "Point", "coordinates": [ -58.4355268, -34.7332705, 0.0 ] } },
{ "type": "Feature", "properties": { "Name": "Falleres & Rawson", "description": "Colocación realizada el día 27/12/2022, 1 (una) calzada completa de 6.5 mts.", "CGM": "Centenario" }, "geometry": { "type": "Point", "coordinates": [ -58.4353337, -34.7335151, 0.0 ] } },
{ "type": "Feature", "properties": { "Name": "Benito Pérez Galdos & Barcelona", "description": "<img src=\"https://mymaps.usercontent.google.com/hostedimage/m/*/3AL_Y2X7uQ9TSV0k88t5lufhHp8nEYOLFg0U90eHNWqFDb3hnd0rjEqIRLSqm4O172Gu_oVIW94ch-90-pVHxTPy8z1mYFcRZpLZHc590FY7DnBX-Q8sYZXAQx6kld5cI7LF8vJWXWuvip30FP32SjXwEGRAlCodw_BnI_Hf5GjdWeqw4D87Rp6UTIS5o0LvHiZoBWV-EEle2uQj0qgNwLas0LpOpAe9Asv69yPIhJUAmHmAvcrrjhZn0uaypK9A1Aw?authuser=0&fife=s16383\" height=\"200\" width=\"auto\" /><br><br>Colocación realizada el día 22/03/2023, 1 (una) calzada completa de 6,5 mts.", "CGM": "Centenario" }, "geometry": { "type": "Point", "coordinates": [ -58.4335776, -34.7276269, 0.0 ] } },
{ "type": "Feature", "properties": { "Name": "Barcelona & Benito Pérez Galdos", "description": "<img src=\"https://mymaps.usercontent.google.com/hostedimage/m/*/3AL_Y2X7w6bGmZIq1Ki2Fo01E-RAvNZZIsj9koFz6-KTBnPGtWtK5b4wRp8TXQTl0lVl16VtIj0CfUTH_bmcoXqJsQPE_pWkXY3PSRCzIs-2gQ9OtTThA-rjFgveupZm7RkubZZTVViQrpN4DiriXRKdXJOEqdPeVXEq-VhAcrlvrwfYFYu8RwIUBbyCpxqf1VLpQk24ocj_eu-Skk-wwE7T5SPFqWsSGVgNBkmfWwaDOpnIg-UHzsJ-4vU4fKVFE0A?authuser=0&fife=s16383\" height=\"200\" width=\"auto\" /><br><br>Colocación realizada el día 22/03/2023, 1 (una) calzada completa de 6,5 mts.", "CGM": "Centenario" }, "geometry": { "type": "Point", "coordinates": [ -58.4336258, -34.7277945, 0.0 ] } },
{ "type": "Feature", "properties": { "Name": "Barcelona & Benito Pérez Galdos", "description": "<img src=\"https://mymaps.usercontent.google.com/hostedimage/m/*/3AL_Y2X6OsYo7Vvhi3sfwRrcShE0UpVbmsGHPKC3iRMRNnTEp48ydRZU9YQSlvNxjnH0FDp8ACnX4P9J1RwUuCCUmZgbwedhTh16ViS1admYVgOVtVPsEzvGKX4HY0MOWOaO46jSZqEJYq0Wd9wI7WxV9zYo-JvYsPps3u513rK3lu7VeEuN_IptmG6T9t3bJkrgv7XAuJILdhYDjNjzjUpnveyp5kZdzR3XoE1GidMF2_VfKKyglncjkAAVglYY54Q?authuser=0&fife=s16383\" height=\"200\" width=\"auto\" /><br><br>Colocación realizada el día 22/03/2023, 1 (una) calzada completa de 6 mts.", "CGM": "Centenario" }, "geometry": { "type": "Point", "coordinates": [ -58.4332986, -34.7276401, 0.0 ] } },
{ "type": "Feature", "properties": { "Name": "Barcelona & Antonio Filardi", "description": "<img src=\"https://mymaps.usercontent.google.com/hostedimage/m/*/3AL_Y2X5RPt94ZlylFwzW17qt0fl7vHasgSRtRE3Ioa--acb0yxYo9CGR6yoG1WB3EQbEgt8h-XsuqS82QOXD3qC51RrO2_j7KJp0Kpp9ubpR5Kkzncxyu57uUk2YxQkvB6FFg6uKGjowwQS70rZs8J3VtZ7ws5JnGemIwlk6r4n_3QkQC5Qz9a1BzW18935zw5KHfOvegwXpQocKeMqiH30XZvBNWoQkqRpN9ovP4-9xsKV2XYzc2wU7KdYqJd5C-Q?authuser=0&fife=s16383\" height=\"200\" width=\"auto\" /><br><br>Colocación realizada el día 22/03/2023, 1 (una) calzada completa de 4,5 mts.", "CGM": "Centenario" }, "geometry": { "type": "Point", "coordinates": [ -58.4292413, -34.7257654, 0.0 ] } },
{ "type": "Feature", "properties": { "Name": "Barcelona & Mario Bravo", "description": "<img src=\"https://mymaps.usercontent.google.com/hostedimage/m/*/3AL_Y2X49oQXshsBkyEoLyogDpzoyI0gJFbqFnj9ML7_oJ3alS83R_sxvm7VL0gPMaZGl-qbOr8L-ueXKgvDsuSh2ZkQzNXXYv9RPM1n1tFgUxzlIFzBnfpYk19LrWXFU5ZKFAN-8eoiUJU6OZNLcNGtmc7h_rCWbTXABU0X5pOAkbu8KK2N9xVLgHJIfuDbUWMJ60AA1MpLlKZ-Q5qEtBVRVxKjBid-FLJFM4dP4kon5azHTdH7L6sG981QEronn2w?authuser=0&fife=s16383\" height=\"200\" width=\"auto\" /><br><br>Colocación realizada el día 22/03/2023, 1 (una) calzada completa de 6.5 mts.", "CGM": "Centenario" }, "geometry": { "type": "Point", "coordinates": [ -58.4274092, -34.7248227, 0.0 ] } },
{ "type": "Feature", "properties": { "Name": "La Haya & General Conesa", "description": "Colocación realizada el día 10/04/2023, 1 (una) calzada completa de 4 mts", "CGM": "Centenario" }, "geometry": { "type": "Point", "coordinates": [ -58.4285959, -34.7169954, 0.0 ] } },
{ "type": "Feature", "properties": { "Name": "La Haya & Darwin", "description": "Colocación realizada el día 10/04/2023, 1 (una) calzada completa de 4 mts.", "CGM": "Centenario" }, "geometry": { "type": "Point", "coordinates": [ -58.4274053, -34.7163607, 0.0 ] } },
{ "type": "Feature", "properties": { "Name": "Alberto Larroque & Victorino de la Plaza", "description": "<img src=\"https://mymaps.usercontent.google.com/hostedimage/m/*/3AL_Y2X7l3utI2QwWKQXqqOmDEk1YRXwNth08ZK9hdcB0xQxfaDyK1ap1G6Q36ClA9aU9xr7pm3swdPAHgsU1uhnVX3Qo1oA5ZOSlJ_4S-42z_fI6C90EUKKacVpM59aCaLKhNz6KFrSvxe_N_3h8FZeeEbr7k_MWw_kDdEfkGa135BH8M6_jL1_iQ-ZMYEX1O_8jRCq5VTEjmyMLBSmb9qF8nMsPiNKYTAXrxd0Y1yDMJLG08a-X5JFtN7BJPGpKPg?authuser=0&fife=s16383\" height=\"200\" width=\"auto\" /><br><br>Colocación realizada el día 27/04/2023, 1 (una) calzada completa de 6,5 mts.", "CGM": "Centenario" }, "geometry": { "type": "Point", "coordinates": [ -58.4291723, -34.7422539, 0.0 ] } },
{ "type": "Feature", "properties": { "Name": "Gabriel Miró & Bolonia (y Nápoles)", "description": "<img src=\"https://mymaps.usercontent.google.com/hostedimage/m/*/3AL_Y2X55VorIKVCXfoa_8qZ-rtF7E8Du3shU6436_lDYiDocV0FHzY1nsKVQvi7FzJqkFjOLWQlHHkuUSUfgBq4u2aIUfFebPXInjp8RtUfDxM-Ned0-CZTqEO8azN7XGevxEsG1sOJ1YSvbSVoyvMT3bgUAqKP5wTOBzfpeq_hmGSzAElRWtkhcep2Yd0RD58rZYqnw0YxCVj_IbcKq1RPZEgom-KnkFuDKAeU58myptE-06V6G11naKgT2oW7xxw?authuser=0&fife=s16383\" height=\"200\" width=\"auto\" /><br><br>Colocación realizada el día 27/04/2023, 1 (una) calzada completa de 4,5 mts.", "CGM": "Centenario" }, "geometry": { "type": "Point", "coordinates": [ -58.4384109, -34.7254693, 0.0 ] } },
{ "type": "Feature", "properties": { "Name": "Gabriel Miró & Bolonia (y Virgen de Itatí)", "description": "<img src=\"https://mymaps.usercontent.google.com/hostedimage/m/*/3AL_Y2X53s-B-VWWN0JEWiQxjIqxEn46T66kqb1yLfKhew2KpUNDnhRFQNxPXK8ggi8kaf1595AIUTq99YMZE9xGC5hYDZqbxDgSqlltpL7prpeGE0ZYQQHv4YjXPfhhNYMyJ9NP9wZb3s7DJWExuTJOzto5uCFIWWZOJmESXYl0ukg0LCMj7KPb2PlGo9xL_hpBkQNmWolaaCKlKTMeC2UYZeka3NAF_s3TwMzT5Kkz7eZrolR-vDP_Be7OKY5jxkw?authuser=0&fife=s16383\" height=\"200\" width=\"auto\" /><br><br>Colocación realizada el día 27/04/2023, 1 (una) calzada completa de 4,5 mts.", "CGM": "Centenario" }, "geometry": { "type": "Point", "coordinates": [ -58.4386417, -34.7251479, 0.0 ] } },
{ "type": "Feature", "properties": { "Name": "Avenida General Martín Rodríguez & J. Zamora (y plumerillo)", "description": "<img src=\"https://mymaps.usercontent.google.com/hostedimage/m/*/3AL_Y2X6lB_ydpVkWZ10y1BNSn_SYYTttcBO1_NOtU8p1WDiorYkWbQSqb-Qr5h3MsiYYRFGJIMFkTZyo5wgTmi9mcBUPXTu8Z-AS0pwnciDoA2wIwQ4qztm7Tnu3p8vMHUak3-UljFqRX0uaASP3W4gAwVhqttoQKTxPZR3BmIHAZzlzDTo_c8jdLh8qrzZ5Sv9UnIid0WgibDpJVMpSup-c45B-NVVLqDr-Qlq5PNQbZR-zLlMamS2fSnvELn-Y-w?authuser=0&fife=s16383\" height=\"200\" width=\"auto\" /><br><br>Colocación realizada el día 27/04/2023, 1 (una) calzada completa de 12.5 mts.", "CGM": "Centenario" }, "geometry": { "type": "Point", "coordinates": [ -58.4211393, -34.728641, 0.0 ] } },
{ "type": "Feature", "properties": { "Name": "Avenida General Martín Rodríguez & J. Zamora (y Emerson)", "description": "<img src=\"https://mymaps.usercontent.google.com/hostedimage/m/*/3AL_Y2X775iN6gxUCCIRNcRMxdykNdnkIXiboDfsR1jn-W7MeKGPSVZJpl--kv0AXXBqTzYseqR6uLS2Cnqz9bYbDQmMLg3BlcbogK2eHqauOXOCrJvnDT6YKwh1lOEdAZeMm0AL6GTMFAXWtlfIkcH2j5JiqReWC__Gp0SckjV0M7jIqBTsne2Ea8IDhq7_N2wY3j__I_N8pixG4oRr8mpPtc2KfPResikI2U6O9miBG8ZjQJZtMW7h7ZrFrskb1vw?authuser=0&fife=s16383\" height=\"200\" width=\"auto\" /><br><br>Colocación realizada el día 27/04/2023, 1 (una) calzada completa de 10 mts.", "CGM": "Centenario" }, "geometry": { "type": "Point", "coordinates": [ -58.4207655, -34.7284536, 0.0 ] } },
{ "type": "Feature", "properties": { "Name": "Benito Pérez Galdos & Ostende", "description": "<img src=\"https://mymaps.usercontent.google.com/hostedimage/m/*/3AL_Y2X64wm6KbCl9uP3kMuMFSIuvE-Lm7q3W0sF1OVmi26rVMdZ11z83NDEffWrMpT47IbZ0i9j-5Rd8mkE1sdOMpWJ_41JB6oms-mJoxHV2hCxy59scMXRTsOMMUlhIaSOR8K2xrhh6PLJrIwZSfUwuXtIM8kIymiOETg8CZr5mgSgdLwx0rFap-vCJv_nhAQscjAjeNTat3dVmchnV6ctgMdvX7iL7cM9IGwjKFMbuM98scje5XhlS3GtyWYemNA?authuser=0&fife=s16383\" height=\"200\" width=\"auto\" /><br><br>El día 29/5/2023 se repara la calzada con 3.25 mts.", "CGM": "Centenario" }, "geometry": { "type": "Point", "coordinates": [ -58.4374496, -34.7225386, 0.0 ] } },
{ "type": "Feature", "properties": { "Name": "General Conesa & Virgen de Itatí", "description": "<img src=\"https://mymaps.usercontent.google.com/hostedimage/m/*/3AL_Y2X5ZmivqiVpt1FVRaijHc1L-v9L2IFaFO8EnQlcAD_gWnbhBDne1r_L6lNwLSv18m0ULUZrkJ7TPX4B5AG3WflEqAXmm0uXQYXsiYgl-jILj3-uEwi-PR1darceycpi3VtMPUhR1isiT1WNOVb596gfQUoFSmqJUKM4auJBZPP8YjlCwmBOi5c88fS7MbIknBSfwVHj3JzvOtyMvef6G5OXz-eixu3YYawMO-JiMQHJLbgranoCZC-WtFLUv4A?authuser=0&fife=s16383\" height=\"200\" width=\"auto\" /><br><br>Colocación realizada el día 05/07/2023, 1 (una) calzada completa de 6,5 mts.", "CGM": "Centenario" }, "geometry": { "type": "Point", "coordinates": [ -58.4276095, -34.7185121, 0.0 ] } },
{ "type": "Feature", "properties": { "Name": "Virgen de Itatí & General Conesa", "description": "<img src=\"https://mymaps.usercontent.google.com/hostedimage/m/*/3AL_Y2X7qNY721Xu33I2cwiPgSzOQ6r71W8vwKQu0azpLKpPmRd3L8G3iJM1_QAQWNzvmyB5pP8wM-iUgbcBR0E2O-Ep2BBihWnBgo281R5__TPwYLlnVk3Ge2m27N4iE1TdrwkhcobInfprD7R1opc3vYqO0WVoaZAlyj655MfAAVAJ9tC4sdGwkoPZhqDYySq4V22nVwiOnpgO-QPOW5GM7lZFOYgGNefo1-XRT8rGmXrWcrWmQHu3vaJ6dh5VoUw?authuser=0&fife=s16383\" height=\"200\" width=\"auto\" /><br><br>Colocación realizada el día 05/07/2023, 1 (una) calzada completa de 5,5 mts.", "CGM": "Centenario" }, "geometry": { "type": "Point", "coordinates": [ -58.4277711, -34.7184543, 0.0 ] } },
{ "type": "Feature", "properties": { "Name": "Gabriel Miró & París", "description": "<img src=\"https://mymaps.usercontent.google.com/hostedimage/m/*/3AL_Y2X6KrpIWScPYkSJTf0FsOZTcH_5-PBtJw8skayqSEc_E1s-3ulgyjtgRbFq2js7MOElodzc_Ib8qOxFWO1klx131pYHPSahhhVMUcyCnj-RFDX3d2lEv9LlWgL8_EopgWtrKmc-hXKmKvUc74z0DtqQ_cElDjKE-CIPE7kEeBA9PGEqiQplMBFlM8l4In1Ub3FEry8MHMndYTQ_7lap1U0zgjGDECQGsq8zXkMNywHuMIZc9UZtAdGENqXTgnA?authuser=0&fife=s16383\" height=\"200\" width=\"auto\" /><br><br>Colocación realizada el día 06/09/2023, 1 (una) calzada completa de 6,5 mts", "CGM": "Centenario" }, "geometry": { "type": "Point", "coordinates": [ -58.4365477, -34.7278925, 0.0 ] } },
{ "type": "Feature", "properties": { "Name": "Gabriel Miró & Amberes", "description": "Colocación realizada el día 06/09/2023, 1 (una) calzada completa de 6,5 mts", "CGM": "Centenario" }, "geometry": { "type": "Point", "coordinates": [ -58.4374436, -34.7266949, 0.0 ] } },
{ "type": "Feature", "properties": { "Name": "Falleres & París (y Barcelona)", "description": "Colocación realizada el día 06/09/2023, 1 (una) calzada completa de 6,5 mts", "CGM": "Centenario" }, "geometry": { "type": "Point", "coordinates": [ -58.4387908, -34.7290708, 0.0 ] } },
{ "type": "Feature", "properties": { "Name": "Falleres & París (y Amberes)", "description": "<img src=\"https://mymaps.usercontent.google.com/hostedimage/m/*/3AL_Y2X4hTWAmMXoFoqhbqKmG7KfskYaafst-yhiikkniBaT8e_0Pt0C5C9U_Fo4EiqE7G8eDAUdeBokrtSIJmcyJfCCZBRdzenhPaGMQA4_v9tQKy2yoolgBu6k2VFCN5VsSWg1Y9Y45MecFGNFOAyh2CU-oFXhvw4oSx-erQdJiK6Eq2hxqjn_Op3GdXdLcUbB11ca65boIkmN0UTckQQ2J5fjErgLUUAyvLm1ORmWlVDzPnbpl5vYTKNdhU0-CLg?authuser=0&fife=s16383\" height=\"200\" width=\"auto\" /><br><br>Colocación realizada el día 06/09/2023, 1 (una) calzada completa de 6,5 mts", "CGM": "Centenario" }, "geometry": { "type": "Point", "coordinates": [ -58.4389329, -34.7288857, 0.0 ] } },
{ "type": "Feature", "properties": { "Name": "Antonio Filardi & Berna (y Amberes)", "description": "<img src=\"https://mymaps.usercontent.google.com/hostedimage/m/*/3AL_Y2X6TZnqYwgZQql77VnFoJ3BLfjVe8g9F8rO77pvZEsodwEuziLEiCTDqEtUD7drpC-hmMkebxMkooVr7QeEnqHR3SGzTHQCyHIwXk3dlpY288cRT8sIECrCb6Oer4XLmlignaNqA8TNz8Mi9L-44GJI6HMqNdhayvpaO1dRbgJWMhACEOsRKzySWDu45BOBXGt_24nC-ZAgCmiDt8LNRMHAXT0m-GOcpVflSsjlwprJuqYsWibPipdfkDr6eNQ?authuser=0&fife=s16383\" height=\"200\" width=\"auto\" /><br><br>Colocación realizada el día 29/9/2023, 1 (una) calzada completa de 6.5 mts.", "CGM": "Centenario" }, "geometry": { "type": "Point", "coordinates": [ -58.4305076, -34.724122, 0.0 ] } },
{ "type": "Feature", "properties": { "Name": "Antonio Filardi & Berna (y París)", "description": "<img src=\"https://mymaps.usercontent.google.com/hostedimage/m/*/3AL_Y2X42US8IaZqtVcrSpnK0UrhgSBrQbri4wugtPvbdK0IN7rIQtSzENTPDlv4UMopRHLMa90v5sl7DkUwESMkCntwy7LtDvtTKppXIPnB1XB4-M79M37WvgH8P-Eo2ONkvBCjVOIcBf2oPAhm5gLYrEMH4g62qqyov0xaNdRMP39TUCbJYH-OAQE9gyvJIUuoVKM1WEsPIeIGhOyZSnXTvwimBLB5aI51f6l2lZhbIcW8u2fv4ijoLPrxTa6Fxow?authuser=0&fife=s16383\" height=\"200\" width=\"auto\" /><br><br>Colocación realizada el día 29/9/2023, 1 (una) calzada completa de 6.5 mts.", "CGM": "Centenario" }, "geometry": { "type": "Point", "coordinates": [ -58.4302555, -34.7244439, 0.0 ] } },
{ "type": "Feature", "properties": { "Name": "Ostende & Milán (y Morazán)", "description": "<img src=\"https://mymaps.usercontent.google.com/hostedimage/m/*/3AL_Y2X62MLH7ibc3kywVJmPJvM4s2JM7PPJO8XyK2OQsdo9dMjgiW9m8Wtmq7h-SLAAuodkZSpZjOSypptIG9Ppq8YEF77it_eh6OOx-RK608gddV-jAZrMHmRhIYoii6QySDUNsiGb_Ye4qI-QL66J0Cnv-7aNrFpDSVdCVXguugjzXqHcc875AUIWJeQRlkeMK9pJ4kiZGIavAgL7Iy9F2mJTZhN4LUgCULTguVQTuSWjQRtu4BbWIurXydRY60w?authuser=0&fife=s16383\" height=\"200\" width=\"auto\" /><br><br>Colocación realizada el día 29/9/2023, 1 (una) calzada completa de 6.5 mts.", "CGM": "Centenario" }, "geometry": { "type": "Point", "coordinates": [ -58.4347128, -34.7209959, 0.0 ] } },
{ "type": "Feature", "properties": { "Name": "Ostende & Milán (y Miguel de Unamuno)", "description": "<img src=\"https://mymaps.usercontent.google.com/hostedimage/m/*/3AL_Y2X47E62o237Qk7SpG70VC1N6OnpEKAUy5TKE8BKWp5_5w-I5MshTe618hs8j64pNhSHy0QjFb0uAGU1t7u8Q0mifc7m3J9KZjFe5PYVOLNYL9QR1FhxSTeWIvn1iqprwHPZZBn1Gcx4xKWLoxgnzqsuoqjmuLQO3eIsAr6M_0xzMHJyXHo8jpsesANl4vSvtQJSlmqvfTAdY2Q4dTVI6PdRWbBCFBCZPKFhZwXU7wijXVMEPC8KPRAlMD4Iqtw?authuser=0&fife=s16383\" height=\"200\" width=\"auto\" /><br><br>Colocación realizada el día 29/9/2023, 1 (una) calzada completa de 6.5 mts.", "CGM": "Centenario" }, "geometry": { "type": "Point", "coordinates": [ -58.4348629, -34.7211326, 0.0 ] } },
{ "type": "Feature", "properties": { "Name": "Bolonia & Benito Pérez Galdos (y Miguel de Unamuno)", "description": "<img src=\"https://mymaps.usercontent.google.com/hostedimage/m/*/3AL_Y2X6idrXZdf7Sht0vxolMTEKo8jFgoHkZar0V4mFNNHg7ob0NhOMd425KYjGk3H1uRjdWwvhIx5f-DLRkFtsA2sDJcKdiWCFLUQZIjXI-H1UdBmhpVFzpCEXkncQTfUCSfrPXTMZIB7gYLEjOXYQGwfgZm654pIOtOlIi__2PWeqI17DDFWRpCNeTUecHqAl_4LtbXZkgTBZ5vYscFOlvskpcSqRPeQ_0CfzQl4DSMwj5IBzyd7kmTbgconiD2Q?authuser=0&fife=s16383\" height=\"200\" width=\"auto\" /><br><br>Colocación realizada el día 29/9/2023, 1 (una) calzada completa de 6.5 mts.", "CGM": "Centenario" }, "geometry": { "type": "Point", "coordinates": [ -58.4361593, -34.7240656, 0.0 ] } },
{ "type": "Feature", "properties": { "Name": "Bolonia & Benito Pérez Galdos (y Pío Baroja", "description": "<img src=\"https://mymaps.usercontent.google.com/hostedimage/m/*/3AL_Y2X5qyK_IX-w2eqrHjDkdGs6G_uK8B-TQC9zmpfT-Kw_tj8Rb7sWivAXYmpBg-3SJpUIv2kIxP4p4nBunjhT-xnEcxUYP7rPOJGxoN51RsbswYIyUgLd-sFjefqJ51QuZ8ogk_6rsvLNjLG-eYqKvs5wj4NtJFmOvBkBIsckQ-5GFhzK_C62-NpDIa2nN1LNtG9j6HN_yfxadiQVtCOOoYpfLYf55ex45s7Hbh_Zd5zcKAABrh0KuUryzfPKP6g?authuser=0&fife=s16383\" height=\"200\" width=\"auto\" /><br><br>Colocación realizada el día 29/9/2023, 1 (una) calzada completa de 6.5 mts.", "CGM": "Centenario" }, "geometry": { "type": "Point", "coordinates": [ -58.4363631, -34.7241538, 0.0 ] } },
{ "type": "Feature", "properties": { "Name": "Miguel de Unamuno & Puerto Argentino (y Rawson)", "description": "<img src=\"https://mymaps.usercontent.google.com/hostedimage/m/*/3AL_Y2X7dNAWnUzUhzXrQgB_wz_MMQh6rVjYU8Hvb8ApRLZnd4fMAN1UIiUbshsmF0zc_IwMwx0fWiLn2CQLDysi9ERInExF2o5uJYp7UmE0GJ-awX2vE7wusQddvnq8MRHRtC1FrszaVQTtB5PqZYXRsaEv3L5xE3oqIeB5Gfz7EzLcyuvpPjPyVSskmxBtlKbBae8H0nZ5PjwhAOa9kuL4rnbrOoehKS1KDfsm3xdTmdDhCnedybBYPAhqPPfhTFA?authuser=0&fife=s16383\" height=\"200\" width=\"auto\" /><br><br>Colocación realizada el día 08/10/2023, 1 (una) calzada completa de 5.5 mts.", "CGM": "Centenario" }, "geometry": { "type": "Point", "coordinates": [ -58.4304669, -34.7298085, 0.0 ] } },
{ "type": "Feature", "properties": { "Name": "Miguel de Unamuno & Puerto Argentino (y Marsella)", "description": "<img src=\"https://mymaps.usercontent.google.com/hostedimage/m/*/3AL_Y2X7psFBNmUI3z_3nx5Z-YXLKieKkv6EPSTnMh7dXIivzUXQfJIZCcUwWHYLcaN7kQHrpc40ysRT2CMDilZHNA-MNoqDvqX0miR-YUiPvgE5S3JJj5T_KYNFvhYhRmoiObUbI7HeNuy8NcpEkiHEdjU2Went8C5EDzI9gj9HH1GCQrDEnSboKgKu_cdJmwNniRLy5R7du9TKaNd3Faq4HLaaca_IpBJf9eQ0KufUbVBp4A1H44s_A_k-2NhLlTw?authuser=0&fife=s16383\" height=\"200\" width=\"auto\" /><br><br>Colocación realizada el día 08/10/2023, 1 (una) calzada completa de 5.5 mts.", "CGM": "Centenario" }, "geometry": { "type": "Point", "coordinates": [ -58.4306986, -34.729469, 0.0 ] } },
{ "type": "Feature", "properties": { "Name": "Virgen de Itatí & Mario Bravo", "description": "Nombre: <br>Descripción: ", "CGM": "Centenario" }, "geometry": { "type": "Point", "coordinates": [ -58.4313903, -34.7204206, 0.0 ] } },
{ "type": "Feature", "properties": { "Name": "Virgen de Itatí & Mario Bravo", "description": "Nombre: <br>Descripción: ", "CGM": "Centenario" }, "geometry": { "type": "Point", "coordinates": [ -58.4310577, -34.7202487, 0.0 ] } },
{ "type": "Feature", "properties": { "Name": "Ginebra & Francisco de Morazán", "description": "Nombre: <br>Descripción: ", "CGM": "Centenario" }, "geometry": { "type": "Point", "coordinates": [ -58.4356489, -34.7188144, 0.0 ] } },
{ "type": "Feature", "properties": { "Name": "Ginebra & Antonio Filardi", "description": "Nombre: <br>Descripción: ", "CGM": "Centenario" }, "geometry": { "type": "Point", "coordinates": [ -58.4346577, -34.718307, 0.0 ] } },
{ "type": "Feature", "properties": { "Name": "El Plumerillo & Ejército de los Andes", "description": "Nombre: <br>Descripción: ", "CGM": "Centenario" }, "geometry": { "type": "Point", "coordinates": [ -58.4327777, -34.7161637, 0.0 ] } },
{ "type": "Feature", "properties": { "Name": "Mario Bravo & Bucarest", "description": "Nombre: <br>Descripción: ", "CGM": "Centenario" }, "geometry": { "type": "Point", "coordinates": [ -58.4326692, -34.718528, 0.0 ] } },
{ "type": "Feature", "properties": { "Name": "Luis Siciliano y Luis Vernet", "description": null, "CGM": "Centenario" }, "geometry": { "type": "Point", "coordinates": [ -58.431134, -34.736819, 0.0 ] } },
{ "type": "Feature", "properties": { "Name": "Fallieres y Ostende", "description": null, "CGM": "Centenario" }, "geometry": { "type": "Point", "coordinates": [ -58.442032, -34.72485, 0.0 ] } },
{ "type": "Feature", "properties": { "Name": "Fallieres y Ostende", "description": null, "CGM": "Centenario" }, "geometry": { "type": "Point", "coordinates": [ -58.441936, -34.724964, 0.0 ] } },
{ "type": "Feature", "properties": { "Name": "Murature y Cap. Sarmiento", "description": null, "CGM": "Centenario" }, "geometry": { "type": "Point", "coordinates": [ -58.422592, -34.727411, 0.0 ] } },
{ "type": "Feature", "properties": { "Name": "Rawson y Nuñez de Arce", "description": null, "CGM": "Centenario" }, "geometry": { "type": "Point", "coordinates": [ -58.434306, -34.732766, 0.0 ] } },
{ "type": "Feature", "properties": { "Name": "Ginebra y Conesa", "description": null, "CGM": "Centenario" }, "geometry": { "type": "Point", "coordinates": [ -58.429756, -34.715735, 0.0 ] } },
{ "type": "Feature", "properties": { "Name": "Itati y Filardi", "description": null, "CGM": "Centenario" }, "geometry": { "type": "Point", "coordinates": [ -58.432476, -34.720939, 0.0 ] } },
{ "type": "Feature", "properties": { "Name": "Luis Siciliano y Luis Vernet", "description": null, "CGM": "Centenario" }, "geometry": { "type": "Point", "coordinates": [ -58.431049, -34.73693, 0.0 ] } },
{ "type": "Feature", "properties": { "Name": "Cid Guidi de Franc y Emerson", "description": null, "CGM": "Centenario" }, "geometry": { "type": "Point", "coordinates": [ -58.416584, -34.732694, 0.0 ] } },
{ "type": "Feature", "properties": { "Name": "Cid Guidi de Franc y Emerson", "description": null, "CGM": "Centenario" }, "geometry": { "type": "Point", "coordinates": [ -58.416442, -34.732615, 0.0 ] } },
{ "type": "Feature", "properties": { "Name": "Ginebra y B. P. Galdos", "description": null, "CGM": "Centenario" }, "geometry": { "type": "Point", "coordinates": [ -58.439052, -34.720596, 0.0 ] } },
{ "type": "Feature", "properties": { "Name": "Filardi y Marsella", "description": "6,5 Mts.", "CGM": "Centenario" }, "geometry": { "type": "Point", "coordinates": [ -58.428251, -34.727132, 0.0 ] } },
{ "type": "Feature", "properties": { "Name": "Filardi y Marsella", "description": "6,5 Mts.", "CGM": "Centenario" }, "geometry": { "type": "Point", "coordinates": [ -58.428161, -34.727268, 0.0 ] } },
{ "type": "Feature", "properties": { "Name": "Luis Siciliano y Prof. Cid Guidi de Franc", "description": "6.5 Mts.", "CGM": "Centenario" }, "geometry": { "type": "Point", "coordinates": [ -58.428838, -34.739498, 0.0 ] } },
{ "type": "Feature", "properties": { "Name": "Luis Siciliano y Prof. Cid Guidi de Franc", "description": "6.5 Mts", "CGM": "Centenario" }, "geometry": { "type": "Point", "coordinates": [ -58.428763, -34.739577, 0.0 ] } },
{ "type": "Feature", "properties": { "Name": "Nápoles y Núñez de Arce", "description": "5 Mts.", "CGM": "Centenario" }, "geometry": { "type": "Point", "coordinates": [ -58.439029, -34.726596, 0.0 ] } },
{ "type": "Feature", "properties": { "Name": "Fallieres y Bucarest", "description": "6.5 Mts.", "CGM": "Centenario" }, "geometry": { "type": "Point", "coordinates": [ -58.443011, -34.723596, 0.0 ] } },
{ "type": "Feature", "properties": { "Name": "Fallieres y Bucarest", "description": "6.5 Mts.", "CGM": "Centenario" }, "geometry": { "type": "Point", "coordinates": [ -58.44294, -34.723684, 0.0 ] } },
{ "type": "Feature", "properties": { "Name": "Gral. Hornos y Paris", "description": "8.5 Mts.", "CGM": "Centenario" }, "geometry": { "type": "Point", "coordinates": [ -58.422637, -34.72053, 0.0 ] } },
{ "type": "Feature", "properties": { "Name": "Gral. Hornos y Paris", "description": "8.5 Mts.", "CGM": "Centenario" }, "geometry": { "type": "Point", "coordinates": [ -58.422495, -34.72073, 0.0 ] } }
]
}
