{
"type": "FeatureCollection",
"name": "reductores_San Jose",
"crs": { "type": "name", "properties": { "name": "urn:ogc:def:crs:OGC:1.3:CRS84" } },
"features": [
{ "type": "Feature", "properties": { "Name": "Lanús & Villa Barcelo", "description": "Colocación realizada el día 21/7/2021, 1 (una) calzada completa.", "CGM": "San Jose" }, "geometry": { "type": "Point", "coordinates": [ -58.3660239, -34.7462049, 0.0 ] } },
{ "type": "Feature", "properties": { "Name": "Boulevard Armesti & San Patricio", "description": "Colocación realizada el día 7/9/2021, 1 (una) calzada completa.", "CGM": "San Jose" }, "geometry": { "type": "Point", "coordinates": [ -58.3677421, -34.7515755, 0.0 ] } },
{ "type": "Feature", "properties": { "Name": "Boulevard Armesti & San Patricio", "description": "Colocación realizada el día 7/9/2021, 1 (una) calzada completa.", "CGM": "San Jose" }, "geometry": { "type": "Point", "coordinates": [ -58.3672271, -34.7513023, 0.0 ] } },
{ "type": "Feature", "properties": { "Name": "San Patricio & Boulevard Armesti", "description": "Colocación realizada el día 7/9/2021, 1 (una) calzada completa.", "CGM": "San Jose" }, "geometry": { "type": "Point", "coordinates": [ -58.3673417, -34.7516637, 0.0 ] } },
{ "type": "Feature", "properties": { "Name": "San Patricio & Avenida Eva Perón", "description": "Colocación realizada el día 23/9/2021, 1 (una) calzada completa.", "CGM": "San Jose" }, "geometry": { "type": "Point", "coordinates": [ -58.3606368, -34.7609765, 0.0 ] } },
{ "type": "Feature", "properties": { "Name": "Avenida República Argentina & Tarija", "description": "Colocación realizada el día 23/9/2021, 1 (una) calzada completa.", "CGM": "San Jose" }, "geometry": { "type": "Point", "coordinates": [ -58.3625664, -34.7708111, 0.0 ] } },
{ "type": "Feature", "properties": { "Name": "El Tala & Nueva York", "description": "Colocación realizada el día 26/10/2021, 1 (una) calzada completa.", "CGM": "San Jose" }, "geometry": { "type": "Point", "coordinates": [ -58.3606181, -34.7567862, 0.0 ] } },
{ "type": "Feature", "properties": { "Name": "Baltasar & Erickson (y Moctezuma)", "description": "Colocación realizada el día 19/1/2022, 1 (una) calzada completa.", "CGM": "San Jose" }, "geometry": { "type": "Point", "coordinates": [ -58.3508985, -34.7464342, 0.0 ] } },
{ "type": "Feature", "properties": { "Name": "José Neglia & La Golondrina", "description": "Colocación realizada el día 20/1/2022, 1 (una) calzada completa.", "CGM": "San Jose" }, "geometry": { "type": "Point", "coordinates": [ -58.3666959, -34.7691241, 0.0 ] } },
{ "type": "Feature", "properties": { "Name": "Sigmund Freud & Riobamba", "description": "Colocación realizada el día 20/1/2022, 1 (una) calzada completa.", "CGM": "San Jose" }, "geometry": { "type": "Point", "coordinates": [ -58.369539, -34.7535601, 0.0 ] } },
{ "type": "Feature", "properties": { "Name": "Sigmund Freud & Riobamba", "description": "Colocación realizada el día 20/1/2022, 1 (una) calzada completa.", "CGM": "San Jose" }, "geometry": { "type": "Point", "coordinates": [ -58.3694183, -34.7537154, 0.0 ] } },
{ "type": "Feature", "properties": { "Name": "La Calandria & San Juan", "description": "Colocación realizada el día 15/02/2022, 1 (una) calzada completa.", "CGM": "San Jose" }, "geometry": { "type": "Point", "coordinates": [ -58.3646692, -34.7643005, 0.0 ] } },
{ "type": "Feature", "properties": { "Name": "Doctor Carlos Collivadino & El Tala", "description": "Colocación realizada el día 02/03/2022, 1 (una) calzada completa.", "CGM": "San Jose" }, "geometry": { "type": "Point", "coordinates": [ -58.3643048, -34.758567, 0.0 ] } },
{ "type": "Feature", "properties": { "Name": "12 de Agosto & El Trebol", "description": "Colocación realizada el día 05/05/2022, 1 (una) calzada completa.", "CGM": "San Jose" }, "geometry": { "type": "Point", "coordinates": [ -58.3437056, -34.7482817, 0.0 ] } },
{ "type": "Feature", "properties": { "Name": "12 de Agosto & El Trebol", "description": "Colocación realizada el día 05/05/2022, 1 (una) calzada completa.", "CGM": "San Jose" }, "geometry": { "type": "Point", "coordinates": [ -58.3436251, -34.7484768, 0.0 ] } },
{ "type": "Feature", "properties": { "Name": "12 de Agosto & Anchoris", "description": "Colocación realizada el día 19/05/2022, 1 (una) calzada completa.", "CGM": "San Jose" }, "geometry": { "type": "Point", "coordinates": [ -58.3449148, -34.7449625, 0.0 ] } },
{ "type": "Feature", "properties": { "Name": "San Patricio & Avenida Eva Perón", "description": "Colocación realizada el día 15/09/2022, 1 (una) calzada completa de 6 mts.", "CGM": "San Jose" }, "geometry": { "type": "Point", "coordinates": [ -58.3606368, -34.7609853, 0.0 ] } },
{ "type": "Feature", "properties": { "Name": "Dinamarca & Sigmund Freud", "description": "Colocación realizada el día 15/09/2022, 1 (una) calzada completa de 6 mts.", "CGM": "San Jose" }, "geometry": { "type": "Point", "coordinates": [ -58.3691279, -34.7538745, 0.0 ] } },
{ "type": "Feature", "properties": { "Name": "La Madreselva & Sigmund Freud", "description": "Colocación realizada el día 15/09/2022, 1 (una) calzada completa de 6.5 mts.", "CGM": "San Jose" }, "geometry": { "type": "Point", "coordinates": [ -58.3661841, -34.7579357, 0.0 ] } },
{ "type": "Feature", "properties": { "Name": "La Madreselva & Sigmund Freud", "description": "Colocación realizada el día 15/09/2022, 1 (una) calzada completa de 6.5 mts.", "CGM": "San Jose" }, "geometry": { "type": "Point", "coordinates": [ -58.3658462, -34.7577572, 0.0 ] } },
{ "type": "Feature", "properties": { "Name": "Doctor Carlos Collivadino & Las Casuarinas", "description": "Colocación realizada el día 15/09/2022, 1 (una) calzada completa de 9.5 mts.", "CGM": "San Jose" }, "geometry": { "type": "Point", "coordinates": [ -58.3667248, -34.755196, 0.0 ] } },
{ "type": "Feature", "properties": { "Name": "Doctor Carlos Collivadino & Anchoris", "description": "Colocación realizada el día 15/09/2022, 1 (una) calzada completa de 9.5 mts.", "CGM": "San Jose" }, "geometry": { "type": "Point", "coordinates": [ -58.3659785, -34.7562711, 0.0 ] } },
{ "type": "Feature", "properties": { "Name": "La Calandria & El Tordo", "description": "Colocación realizada el día 23/09/2022, 1 (una) calzada completa de 6 mts.", "CGM": "San Jose" }, "geometry": { "type": "Point", "coordinates": [ -58.3544765, -34.7593078, 0.0 ] } },
{ "type": "Feature", "properties": { "Name": "La Calandria & El Tordo", "description": "Colocación realizada el día 23/09/2022, 1 (una) calzada completa de 6,5 mts.", "CGM": "San Jose" }, "geometry": { "type": "Point", "coordinates": [ -58.3543214, -34.759229, 0.0 ] } },
{ "type": "Feature", "properties": { "Name": "El Tordo & La Calandria", "description": "Colocación realizada el día 23/09/2022, 1 (una) calzada completa de 6,5 mts.", "CGM": "San Jose" }, "geometry": { "type": "Point", "coordinates": [ -58.3544421, -34.7591982, 0.0 ] } },
{ "type": "Feature", "properties": { "Name": "El Tordo & La Calandria", "description": "Colocación realizada el día 23/09/2022, 1 (una) calzada completa de 6,5 mts.", "CGM": "San Jose" }, "geometry": { "type": "Point", "coordinates": [ -58.3543589, -34.7593161, 0.0 ] } },
{ "type": "Feature", "properties": { "Name": "Hungría & El Tala", "description": "Colocación realizada el día 23/09/2022, 1 (una) calzada completa de 6,5 mts.", "CGM": "San Jose" }, "geometry": { "type": "Point", "coordinates": [ -58.3509104, -34.7510105, 0.0 ] } },
{ "type": "Feature", "properties": { "Name": "Hungría & El Tala", "description": "Colocación realizada el día 23/09/2022, 1 (una) calzada completa de 6,5 mts.", "CGM": "San Jose" }, "geometry": { "type": "Point", "coordinates": [ -58.350775, -34.7511721, 0.0 ] } },
{ "type": "Feature", "properties": { "Name": "El Tala & Yatay", "description": "Colocación realizada el día 23/09/2022, 1 (una) calzada completa de 4,5 mts.", "CGM": "San Jose" }, "geometry": { "type": "Point", "coordinates": [ -58.3494491, -34.7503871, 0.0 ] } },
{ "type": "Feature", "properties": { "Name": "El Tala & Yatay", "description": "Colocación realizada el día 23/09/2022, 1 (una) calzada completa de 4 mts.", "CGM": "San Jose" }, "geometry": { "type": "Point", "coordinates": [ -58.3492322, -34.7502771, 0.0 ] } },
{ "type": "Feature", "properties": { "Name": "Las Casuarinas & Monroe", "description": "Colocación realizada el día 23/09/2022, 1 (una) calzada completa de 6,5 mts.", "CGM": "San Jose" }, "geometry": { "type": "Point", "coordinates": [ -58.3546922, -34.7496341, 0.0 ] } },
{ "type": "Feature", "properties": { "Name": "Las Casuarinas & Monroe", "description": "Colocación realizada el día 23/09/2022, 1 (una) calzada completa de 6,5 mts.", "CGM": "San Jose" }, "geometry": { "type": "Point", "coordinates": [ -58.3547736, -34.7496794, 0.0 ] } },
{ "type": "Feature", "properties": { "Name": "Boulevard Armesti & Ernesto Nazaret", "description": "Colocación realizada el día 23/09/2022, 1 (una) calzada completa de 7,5 mts.", "CGM": "San Jose" }, "geometry": { "type": "Point", "coordinates": [ -58.3619455, -34.7484731, 0.0 ] } },
{ "type": "Feature", "properties": { "Name": "Blvd. Armesti & Nahuel Huapi", "description": "Colocación realizada el día 23/09/2022, 1 (una) calzada completa de 7,5 mts.", "CGM": "San Jose" }, "geometry": { "type": "Point", "coordinates": [ -58.3629045, -34.7489591, 0.0 ] } },
{ "type": "Feature", "properties": { "Name": "Ernesto Nazaret & Bvld. Armesti", "description": "Colocación realizada el día 23/09/2022, 1 (una) calzada completa de 6,5 mts.", "CGM": "San Jose" }, "geometry": { "type": "Point", "coordinates": [ -58.3618696, -34.7485029, 0.0 ] } },
{ "type": "Feature", "properties": { "Name": "Ernesto Nazaret & Dinamarca", "description": "Colocación realizada el día 23/09/2022, 1 (una) calzada completa de 6,5 mts.", "CGM": "San Jose" }, "geometry": { "type": "Point", "coordinates": [ -58.3610936, -34.7495107, 0.0 ] } },
{ "type": "Feature", "properties": { "Name": "La Calandria & Chubut", "description": "Colocación realizada el día 23/09/2022, 1 (una) calzada completa de 6,5 mts.", "CGM": "San Jose" }, "geometry": { "type": "Point", "coordinates": [ -58.3565585, -34.7603406, 0.0 ] } },
{ "type": "Feature", "properties": { "Name": "El Churrinche & La Perdiz", "description": "Colocación realizada el día 18/11/2022, 1 (una) calzada completa de 4.5 mts.", "CGM": "San Jose" }, "geometry": { "type": "Point", "coordinates": [ -58.3437578, -34.7556506, 0.0 ] } },
{ "type": "Feature", "properties": { "Name": "La Perdiz & El Churrinche", "description": "Colocación realizada el día 18/11/2022, 1 (una) calzada completa de 4.5 mts.", "CGM": "San Jose" }, "geometry": { "type": "Point", "coordinates": [ -58.3439563, -34.7556264, 0.0 ] } },
{ "type": "Feature", "properties": { "Name": "El Churrinche & El Chajá", "description": "Colocación realizada el día 18/11/2022, 1 (una) calzada completa de 4.5 mts.", "CGM": "San Jose" }, "geometry": { "type": "Point", "coordinates": [ -58.3445956, -34.7560791, 0.0 ] } },
{ "type": "Feature", "properties": { "Name": "Monroe & F. Muñoz Azpiri", "description": "Colocación realizada el día 18/11/2022, 1 (una) calzada completa de 6.5 mts.", "CGM": "San Jose" }, "geometry": { "type": "Point", "coordinates": [ -58.3516466, -34.7537428, 0.0 ] } },
{ "type": "Feature", "properties": { "Name": "Monroe & Mirasol", "description": "Colocación realizada el día 18/11/2022, 1 (una) calzada completa de 6.5 mts.", "CGM": "San Jose" }, "geometry": { "type": "Point", "coordinates": [ -58.3512222, -34.7543141, 0.0 ] } },
{ "type": "Feature", "properties": { "Name": "Monroe & Boulevard Armesti", "description": "Colocación realizada el día 16/12/2022, 1 (una) calzada completa de 6,5 mts.", "CGM": "San Jose" }, "geometry": { "type": "Point", "coordinates": [ -58.3572207, -34.7461807, 0.0 ] } },
{ "type": "Feature", "properties": { "Name": "Boulevard Armesti & Monroe", "description": "Colocación realizada el día 16/12/2022, 1 (una) calzada completa de 7,5 mts.", "CGM": "San Jose" }, "geometry": { "type": "Point", "coordinates": [ -58.3573826, -34.7461402, 0.0 ] } },
{ "type": "Feature", "properties": { "Name": "Boulevard Armesti & Monroe", "description": "Colocación realizada el día 16/12/2022, 1 (una) calzada completa de 7 mts.", "CGM": "San Jose" }, "geometry": { "type": "Point", "coordinates": [ -58.3572083, -34.7460493, 0.0 ] } },
{ "type": "Feature", "properties": { "Name": "El Cardenal & Los Paraísos", "description": "<img src=\"https://mymaps.usercontent.google.com/hostedimage/m/*/3AL_Y2X6tFtbFyUtYMovxMIAj974DFXy7azGwUdMx9xiLERWMzKpkU0Rf11TPBoxeEzGMEOkGP28BdF6FzhZTpduUQx9s27kQn22mHh5sFftRpTo-O-yowghcTPS84M4Uuk2hgGsWyq5DkNYoOewKTKRSdtJcpOrafnmkwwkfZp3hdaCQWQLMpiDOeLoDaknW0_pcsL4Xnfzuui5c1BA-PFdTZwDNUQW30nzGuWPLeJhfI6buUIoGcgBpv94hFGzQXA?authuser=0&fife=s16383\" height=\"200\" width=\"auto\" /><br><br>", "CGM": "San Jose" }, "geometry": { "type": "Point", "coordinates": [ -58.3445489, -34.7513304, 0.0 ] } },
{ "type": "Feature", "properties": { "Name": "El Cardenal & Los Paraísos", "description": "<img src=\"https://mymaps.usercontent.google.com/hostedimage/m/*/3AL_Y2X4AKZYbsTikYO7z1eDgOk4gsmhGCV0g9LklRt6k9abgrb7woNiizWKzVKzlLUcYJ1prDyXOhGr3UIPCStVWEURyXnegRfoplY6r3tL5WpJQBXMSNXWvrW5VT4BwlHh5aS388wUVgPiu-L5Fq2g3a4nQ0wA-mwESxvWFzKAMdHO8-m9Hh8QmKQ6-_nblVxbQCaUgqJL0-mPIHWIzvN-uvOUywN42B-iKL9mj_1hitUAmnFsyrRGKf-hpZ1B4WQ?authuser=0&fife=s16383\" height=\"200\" width=\"auto\" /><br><br>Colocación realizada el día 10/01/2023, 1 (una) calzada completa de 5.5 mts.", "CGM": "San Jose" }, "geometry": { "type": "Point", "coordinates": [ -58.3450102, -34.7515508, 0.0 ] } },
{ "type": "Feature", "properties": { "Name": "Moctezuma & El Cardenal", "description": "<img src=\"https://mymaps.usercontent.google.com/hostedimage/m/*/3AL_Y2X6AZgNwwHJQV77s1qViAdMd90flVy2ri76Tx38irJQ0QXa_KLdAJnTXtrIBnKnGhSg1JNyEr0cfewdjaUgHytyz7w_aGMEgCxSlEG5QqWPOY-n8_dWO-KGeNOoz-EX_S8liqHhnflp8J4HQvopeEAaK9Exy-7cp1fb7hdRNKtAufGTFAkroZ2l4ZaHUg9K_ctX5PmbbGuKOJRVGhfqhTnBQpbuyHE2PU0Aegqz9u7q_K62cWD2OMvu6bwRO_w?authuser=0&fife=s16383\" height=\"200\" width=\"auto\" /><br><br>", "CGM": "San Jose" }, "geometry": { "type": "Point", "coordinates": [ -58.3466931, -34.7526239, 0.0 ] } },
{ "type": "Feature", "properties": { "Name": "Moctezuma & El Cardenal", "description": "Colocación realizada el día 10/01/2023, 1 (una) calzada completa de 6.5 mts.", "CGM": "San Jose" }, "geometry": { "type": "Point", "coordinates": [ -58.3468728, -34.7523396, 0.0 ] } },
{ "type": "Feature", "properties": { "Name": "Defensa & Boulevard Armesti", "description": "Colocación realizada el día 10/04/2023, 1 (una) calzada completa de 6,5 mts.", "CGM": "San Jose" }, "geometry": { "type": "Point", "coordinates": [ -58.3486759, -34.7416783, 0.0 ] } },
{ "type": "Feature", "properties": { "Name": "El Zorzal & El Halcon (sentido San Cristobal)", "description": "<img src=\"https://mymaps.usercontent.google.com/hostedimage/m/*/3AL_Y2X40e9krgbirIpehl84BY1dotpVBsnx5KyccSWGunMZBXH35GCXnWadxyGJt5VlOnoal03ixhzBCxnxfunwgpy3yYXwmP4MDc6XoTJdrfKu_iJLloNYml7xM3pJk7QJurQwv1CQpL-Xs2e_dFczW1mhl_Lq4QQWyDPaZgCLvTlkzVPAQhyOo3VC5gM7IL02iwdbOdHzhMODRCCBiHjRL7JFzfmQ_aFg_8hddkXxwpp5-2JiJOj34oEwonszfRQ?authuser=0&fife=s16383\" height=\"200\" width=\"auto\" /><br><br>Colocación realizada el día 14/04/2023, 1 (una) calzada completa de 4,5 mts.", "CGM": "San Jose" }, "geometry": { "type": "Point", "coordinates": [ -58.3461684, -34.7577069, 0.0 ] } },
{ "type": "Feature", "properties": { "Name": "El Zorzal & El Halcon (sentido El Cóndor)", "description": "<img src=\"https://mymaps.usercontent.google.com/hostedimage/m/*/3AL_Y2X6sP1TQikIUJ25yMj_pd1qNbWKAtM-SdLs-rUA5oafz-AiWwd2rX9-Le8QV3mn_JH--Nvs0UJHRc7YEVr7jeRyGkirIpehLY0gEbEoJcoGuE6ndI-sAwNfVBk2Pmc-ZHYXjo1mOmWJjdnnpPErWN9rP_8tSvinAkdUR0Q5DtkMthJbtxPBgX1_UclfMTtniCvoLQO49OWbpahYmL4pWZmp9D7Nmbx_n0Ht3fEnkazn8tOB685rY_OQEHhbrvg?authuser=0&fife=s16383\" height=\"200\" width=\"auto\" /><br><br>Colocación realizada el día 14/04/2023, 1 (una) calzada completa de 4 mts.", "CGM": "San Jose" }, "geometry": { "type": "Point", "coordinates": [ -58.3458082, -34.7575158, 0.0 ] } },
{ "type": "Feature", "properties": { "Name": "Suiza & La Madreselva", "description": "<img src=\"https://mymaps.usercontent.google.com/hostedimage/m/*/3AL_Y2X6vK5YPkJr6A3QfUUbcJYXpJoOaaHjBb0Y5ox4WrelUU-7x-x9JpHIoKL6g7qgxSsNaLTVYzFEmY9JiqP9KGi2_Z0zUnUvoY3pwVrYThm-bAGj-HK31FoWtReWKyXUDk4_Miy25jiGbMnvAebBz_TEVjPShpRJx43bnil5vIRkHvSA8DZtF-UmeIVk1S_DQ06bWD60fjYM1T5DrZU3jeOp-SM1LwdJIC_Psj3bblVAgOJ4WJCxPNtdfjUKzJg?authuser=0&fife=s16383\" height=\"200\" width=\"auto\" /><br><br>Colocación realizada el día 29/5/2023, 1 (una) calzada completa de 6.5 mts.", "CGM": "San Jose" }, "geometry": { "type": "Point", "coordinates": [ -58.3572454, -34.7526487, 0.0 ] } },
{ "type": "Feature", "properties": { "Name": "San Cristóbal & El Zorzal", "description": "<img src=\"https://mymaps.usercontent.google.com/hostedimage/m/*/3AL_Y2X5f3wLWPiPIwwRf-v7bf1aNBwDE9m1mAClB-gzfzn_GrRqjw5pbi5ET093EfAcVhlEnCV2QeehlQNvi48x_3H6PB8-FTpK0r5QRJylBBzIVm4x5DcDdnPM4kPUBpeckip5e3sRHQbwu6UUAd0CWZhiK__q0KamdUZDi9bm1pWfgeja2xBg6MuFsNdrIGGsOgMdxeYz1UNBluDXxb6s79DnvxuI_aqd440iQQC1qJZLuvm_LmASPRPy8gD8jjg?authuser=0&fife=s16383\" height=\"200\" width=\"auto\" /><br><br>Colocación realizada el día 27/07/2023, 1 (una) calzada completa de 6,5 mts.", "CGM": "San Jose" }, "geometry": { "type": "Point", "coordinates": [ -58.3474473, -34.7582013, 0.0 ] } },
{ "type": "Feature", "properties": { "Name": "San Cristóbal & El Zorzal", "description": "<img src=\"https://mymaps.usercontent.google.com/hostedimage/m/*/3AL_Y2X7NQmHCeTzhGLM9L30eBr0eMI32b7DUm5JOGhncE007_mlC8DEfTF8mAHsOTvnc5QrfxQVFIYOxIzUqqKl5YtAlEwhJGDYMcHNu3tSomVxS_qsHpzf2YK8EjcgOHdJhxOYPQOa47IN5xW6NZb-sTNVrbU8kZ3zu7Wa_7ihtfHPI4R2eIbjMiVhCFKpD7yZpQzK5LgY19cHpcgY9wLx0_V9ZJW5vbYb4s4EK9Vu0FDoaHDSqYjCeQJOg7ituWQ?authuser=0&fife=s16383\" height=\"200\" width=\"auto\" /><br><br>Colocación realizada el día 27/07/2023, 1 (una) calzada completa de 6,5 mts.", "CGM": "San Jose" }, "geometry": { "type": "Point", "coordinates": [ -58.3472824, -34.7584084, 0.0 ] } },
{ "type": "Feature", "properties": { "Name": "Juan de Garay 3658 & Pcia. de Misiones (y Tierra del Fuego)", "description": "<img src=\"https://mymaps.usercontent.google.com/hostedimage/m/*/3AL_Y2X5ByyM4F7qtHsgNEuY4QjRQjemlQj5aH84V5L6Il2iA8_D-poP0S_I2UJyM3w6OP1JSq6aQPSns1yDLUS4nyYLCLYr_UlgTAThcCTk6gfh36-_wCjlm7v-y08PgbgsKcPymI8lpKA4F9o-xyJ1dj9mUDxKFcmQQ5VYPiFS5ZBwwH5dmczN2KdBmlY-LB3Ry-4Dz2Texg_PHcpYcuXDQJ6jxkvQdlPute1L_3XZigLbsajz-mGjHwjWWGJNXkQ?authuser=0&fife=s16383\" height=\"200\" width=\"auto\" /><br><br>Colocación realizada el día 29/8/2023, 1 (una) calzada completa de 6.5 mts", "CGM": "San Jose" }, "geometry": { "type": "Point", "coordinates": [ -58.3513612, -34.7619866, 0.0 ] } },
{ "type": "Feature", "properties": { "Name": "Juan de Garay 3658 & Tierra del Fuego (y Pcia de Misiones)", "description": "<img src=\"https://mymaps.usercontent.google.com/hostedimage/m/*/3AL_Y2X7eD5zthtqU68HKZ6369LAumsp7W2AP5p_sKdkDUNW88pA-YABohQLP4bTcYvRqdSQqEWkRse0hEA10eWGiQxFnSKobjb7tLKmY1AQd4CygdVpz9pwcr-xiPF3GUmJSIaLyHO2egPzyvSrwz9GOB_21hQGJlvga88c66jWAiaBiAHWBGn1nHGjFFm7v0P9QwaeGYrp0RUOuINTuKsxVwg_bDV0JN4Stuh1QfY4mJHM4u5zPlQiyjrwbveBmVg?authuser=0&fife=s16383\" height=\"200\" width=\"auto\" /><br><br>Colocación realizada el día 29/8/2023, 1 (una) calzada completa de 6.5 mts", "CGM": "San Jose" }, "geometry": { "type": "Point", "coordinates": [ -58.3520304, -34.7623208, 0.0 ] } },
{ "type": "Feature", "properties": { "Name": "12 de Agosto & Boulevard Armesti", "description": "<img src=\"https://mymaps.usercontent.google.com/hostedimage/m/*/3AL_Y2X7Nmf2rSh-p3km58Z6In2pXmnT54R_8hQiQKknJjiKkwBDAQ3POHb7_KgxAaoPOIda6HckDaWAV2-6DJR9KqFLtAZz94RGKuIYIBnPVdpQSsKgw54xeldX6QFAgLr-_Qz225n8tdtVnAlPHRGUs-j0S0_bJo9Rx0FSlz5QHhCo4EdK4ZXhA_edAdUKM1xNIHfyWp0KqYUdk_POmCdHZ9OApbJh0P5UJYYcuCTxqYW-SYBAIa6RXGNffX79oGA?authuser=0&fife=s16383\" height=\"200\" width=\"auto\" /><br><br>Colocación realizada el día 06/09/2023, 1 (una) calzada completa de 6,5 mts", "CGM": "San Jose" }, "geometry": { "type": "Point", "coordinates": [ -58.3465229, -34.7408075, 0.0 ] } },
{ "type": "Feature", "properties": { "Name": "12 de Agosto & Boulevard Armesti\n", "description": "<img src=\"https://mymaps.usercontent.google.com/hostedimage/m/*/3AL_Y2X5I_l-WgBOjMMmcAO_MPjGlahHfTYs_ot6HduspwaPMnv7VTNcYN1osf3flva0GceydVy8vhBq4U-96NZhpVd0-pfLhcmt3RPxhMCyxHsa5calhgEU1vCI-TwTp73ZWWb0RtdkPLR4cEcDuUxJB_rd6ZxtwYxoamsonDzwIFAgz-DNJenU_qZtgrjV7oqRj41rELfGcLfgft_5xL_65QMEVccPKs9L_QCPFZei0PKfbwllf2XfM5qBpJTY2UA?authuser=0&fife=s16383\" height=\"200\" width=\"auto\" /><br><br>Colocación realizada el día 06/09/2023, 1 (una) calzada completa de 6,5 mts", "CGM": "San Jose" }, "geometry": { "type": "Point", "coordinates": [ -58.3465773, -34.740638, 0.0 ] } },
{ "type": "Feature", "properties": { "Name": "12 de Agosto & Dinamarca", "description": "<img src=\"https://mymaps.usercontent.google.com/hostedimage/m/*/3AL_Y2X5yjo_VCYtUF7KW6LwuLqs8DOdRCDC1Qy73WP22owUk7Seaey87jJ5uLOSGYAXGE2eXINcFpBMgrwhS9eTrQyuG-Zz4d0T4RvUlngBk8QwbJnt58zLiWew1RgXRZbsuGjQrQVnMOZg05XigXZkhclOzkw5VrmyAwQhsSknVoIJdzAl6lx7o2GVsaD8821ALn7JYcAosgoe_U4nKhD-n7OfBAfw9Wq6dhJPh0tfawy5L8KiTsyhBPRX95f-lPw?authuser=0&fife=s16383\" height=\"200\" width=\"auto\" /><br><br>Colocación realizada el día 06/09/2023, 1 (una) calzada completa de 6,5 mts", "CGM": "San Jose" }, "geometry": { "type": "Point", "coordinates": [ -58.3459688, -34.7422653, 0.0 ] } },
{ "type": "Feature", "properties": { "Name": "Mirasol & San Patricio", "description": "<img src=\"https://mymaps.usercontent.google.com/hostedimage/m/*/3AL_Y2X7ru-TNFNdCNT5FPHOntGiOndTRx5o9dyAfQ3LJ4xy_uLYpu1AupgVcxJGHyQuoiqWZ4mcwRfqpjIoJMvLc0IYPOoJ43YxYk5nmKueTNnyk74YKqXOieu-rWaUo7UVb6yCYr973tyhFB5u4pbqxZaRf6MZuUXYTHeHvnII5xAXGJ6N_BWhdqc1Kh1wu2J86VIx9V85-HlhTQJZoNOOkU1pif9PKP1yGe6-cU4RhUzpujh8gyklQdCu50D81XA?authuser=0&fife=s16383\" height=\"200\" width=\"auto\" /><br><br>Colocación realizada el día 06/09/2023, 1 (una) calzada completa de 6 mts", "CGM": "San Jose" }, "geometry": { "type": "Point", "coordinates": [ -58.3616635, -34.7595198, 0.0 ] } },
{ "type": "Feature", "properties": { "Name": "Mirasol & Doctor Carlos Collivadino", "description": "<img src=\"https://mymaps.usercontent.google.com/hostedimage/m/*/3AL_Y2X4UGkbHX8u9GoMBfv-_uXmtBtfAmZca6t1mDBecCRau5c4FzcKBp7cRWy8ylWYyvVmTt2ob8GOMkJHMK5QGWLuEyhPFbXx_KyD6Oo1Oe2xtdrJmw31560da1YimFo7XFgdGCyLVx4cDUTDqEJdO7DOnthgdwhSXkSZxwuZi4rnPeQjbipPks1Gixsn0MVswjebl0W3Ea74RwLD3ubQJqIhWnUW37M_vNoZGiCt1s_dFf88iiQIwguxrllxvbQ?authuser=0&fife=s16383\" height=\"200\" width=\"auto\" /><br><br>Colocación realizada el día 06/09/2023, 1 (una) calzada completa de 6,5 mts", "CGM": "San Jose" }, "geometry": { "type": "Point", "coordinates": [ -58.3631441, -34.7602115, 0.0 ] } },
{ "type": "Feature", "properties": { "Name": "Avenida República Argentina & Quilmes (y La Golondrina)", "description": "<img src=\"https://mymaps.usercontent.google.com/hostedimage/m/*/3AL_Y2X6ARgctYi42u6YTX9cMStyN9ymnrTsYyoT6v4Wcqoti-mnADF0EtlY5jro98bM5Z9WRjwVPtCP8v6jp15wOIdYhR5aCz0adeDM6OpUR5StX6vcGvBV29_hFevxOEYL7G23A837hPDePYYG73kvBVYe0RDum-6zv9qJxEgAMxyyAzhXkaD485715NL-9_jA6kkohDhrXaYk0KU3iXtpxyKXqtEPu0HB6XxAmOsQPlOHRQfhDBPwku8FdVK6q7A?authuser=0&fife=s16383\" height=\"200\" width=\"auto\" /><br><br>Colocación realizada el día 06/09/2023, 1 (una) calzada completa de 7 mts", "CGM": "San Jose" }, "geometry": { "type": "Point", "coordinates": [ -58.3629003, -34.7685186, 0.0 ] } },
{ "type": "Feature", "properties": { "Name": "Avenida República Argentina & Quilmes (y Rubén de Rosas)", "description": "<img src=\"https://mymaps.usercontent.google.com/hostedimage/m/*/3AL_Y2X7djX7WfrvTXLx57CD8RUJTVhGB_QGfhrAiHX7TnOS-HIvaXY8FpzqPjWvMjoje4JZhE95p7Vk3CvuHoy-EoHjVVQrOiiDEEVvr44Nl0tFIy5gVKd-PAUPceNKG4FPPxYSjD9lx7wY2n7vG1n1DHMmNUfWNY1HGbpyUfp-R5zEITf9rVkmPYQDtUDXHo9bGZxXc48moFO8E-giXzElPHEy7esVFGgxjvzlkJok98vD4nvXVwjFCPGAKod3JUQ?authuser=0&fife=s16383\" height=\"200\" width=\"auto\" /><br><br>Colocación realizada el día 06/09/2023, 1 (una) calzada completa de 7,5 mts", "CGM": "San Jose" }, "geometry": { "type": "Point", "coordinates": [ -58.3625572, -34.7695995, 0.0 ] } },
{ "type": "Feature", "properties": { "Name": "El Hornero & Concepción", "description": "<img src=\"https://mymaps.usercontent.google.com/hostedimage/m/*/3AL_Y2X5Nu-ZsEIiR-6sehmlmQloskcNv5t9AkP8CltDdkkNbmdu6lnUK3Hi_oEfh22rd7R4UNPzSp9XomWfhG1Cx6gLYImARaO4WoLiuMQOjrnGQwXSHbai3RqyspU7pHLRNgmnd-cspiZlIacGyJ4qenbpDLElr-uJXVoljbUF6nR908rJOA6KcY7r4dy_5T4CFSWxjzu0V6-GaLyv-vRiEFlIRfVfxo05p_6s5NuBPrIuak-CsXH46QGXcxSxdDA?authuser=0&fife=s16383\" height=\"200\" width=\"auto\" /><br><br>Colocación realizada el día 12/09/2023, 1 (una) calzada completa de 6,5 mts", "CGM": "San Jose" }, "geometry": { "type": "Point", "coordinates": [ -58.3405035, -34.7532332, 0.0 ] } },
{ "type": "Feature", "properties": { "Name": "El Hornero & Lules", "description": "<img src=\"https://mymaps.usercontent.google.com/hostedimage/m/*/3AL_Y2X6CTKl1sgxVUxMAthoUeRkoOzO9dyRL5YnEogY_7-fwRbubAN-JoX4pdj-lk4nnFh1hU7qpKR_Ku_-5jGgWmTuMW8td5RF5Qp_qpRv9LxDlpe2MR_W_gIfzOZl8C0YWYsj_1545_md9Kcz0WpatoCgoQUEEXsLANGCkPAYJJypM_QfYGIITdjAZsACqju-Czv4eNsO16asE1zcHbZ1ov2Ut0_4p24he8AOnnajxUmGE27qhTTUsxGhe4B7YSg?authuser=0&fife=s16383\" height=\"200\" width=\"auto\" /><br><br>Colocación realizada el día 12/09/2023, 1 (una) calzada completa de 6,5 mts", "CGM": "San Jose" }, "geometry": { "type": "Point", "coordinates": [ -58.3414378, -34.7536566, 0.0 ] } },
{ "type": "Feature", "properties": { "Name": "El Hornero & El Chingolo", "description": "<img src=\"https://mymaps.usercontent.google.com/hostedimage/m/*/3AL_Y2X404dDxlrWIGI_ncG7KbLi-y3fLHm6IxtnKjbKb-XoOyLtZ_r5_DbmB8pWq7ltiSWPk9iTcakZT-l3EagfFavISnbiwj5CefCn7tAdZQlpv1Rvim1TJDbibOu2_oJ4e_FYf2APF900QkiqGcpouK1UL0pMlJuxWETDyGPVvpDL3ANOp0wym6pp1Gy6U6cZowiccCmQxsYoBS31yfFxpB9skZsHmX8VAy6CgIwqWchzcFy3rVTgK6OPEK8skMA?authuser=0&fife=s16383\" height=\"200\" width=\"auto\" /><br><br>Colocación realizada el día 12/09/2023, 1 (una) calzada completa de 6,5 mts", "CGM": "San Jose" }, "geometry": { "type": "Point", "coordinates": [ -58.3434069, -34.7546109, 0.0 ] } },
{ "type": "Feature", "properties": { "Name": "El Eucaliptus & El Churrinche", "description": "Colocación realizada el día 12/09/2023, 1 (una) calzada completa de 6,5 mts", "CGM": "San Jose" }, "geometry": { "type": "Point", "coordinates": [ -58.3611334, -34.7636695, 0.0 ] } },
{ "type": "Feature", "properties": { "Name": "Revolucion de Temperley (y Anchorena)", "description": "<img src=\"https://mymaps.usercontent.google.com/hostedimage/m/*/3AL_Y2X73-w8qt2nxoj7JKiHo3QLJAnLbNM9Be5TRd-l2Tgmgsj0PyZeYEPPDDscEv6EZ4ipWwps-NTd7E6p7G5R1HFQCm3QA7aNxPOiGyeaMoHHK2j2XQFriKaq_rBJM4LeChsmBQ-cv6ABKeYhqL8ztO-BY0qymoHI_EhHAZw-fy-HAffhPCmW2g3WRevkHh5Y36PdpHQW4EETtlCOcUwe3H8P_N46vXU3t4H6tp3re0bhMeqhTzuop-hcXBjiSkA?authuser=0&fife=s16383\" height=\"200\" width=\"auto\" /><br><br>Colocación realizada el día 12/09/2023, 1 (una) calzada completa de 6,5 mts", "CGM": "San Jose" }, "geometry": { "type": "Point", "coordinates": [ -58.369176, -34.7608131, 0.0 ] } },
{ "type": "Feature", "properties": { "Name": "Revolucion de Temperley (y Oruro)", "description": "<img src=\"https://mymaps.usercontent.google.com/hostedimage/m/*/3AL_Y2X6CE8FjV6zITbr6_ORm5B7hHSUDBYFqDMumgUGHxeVDaxbtX5B15dP_MzPhQJcZ2Ywo8FSuzPeuGuCYHZnroajD663cnd__ZhsYQh8oJaSRaEx7essqxh22VYdUNdO3OwXAHrwJfX3jaHZhSAScaFEkmjvPnL1qVYvVBNWFN2rdjmIMUtUzlG9ChiTM6oB5zv-5xEPIxC5wPMWfCHfb8vLBaSnDCrmpw_usxfVdRV_gDfH2wiYKDoxKTBC7Cg?authuser=0&fife=s16383\" height=\"200\" width=\"auto\" /><br><br>Colocación realizada el día 12/09/2023, 1 (una) calzada completa de 7 mts", "CGM": "San Jose" }, "geometry": { "type": "Point", "coordinates": [ -58.3692073, -34.7610629, 0.0 ] } },
{ "type": "Feature", "properties": { "Name": "San Cristóbal & El Hornero (y El Churrinche)", "description": "<img src=\"https://mymaps.usercontent.google.com/hostedimage/m/*/3AL_Y2X5DrhhHq-Joc5Ye_zoeZKUx2xqZQvxNMJMwygA-LrGKTZQb5qdPKndTTS4K9BkUF6x8CxxJ0rxsdjhUoyzfMe1m0A0j1vCjE8SNJhif8yjkRnO88yd_g0EjVFjjC2XRY5EGWWoFSawUA4911wNqg3RB3Wb3NNTb8nw7CiZDlqR6_mXfuTo36-vetmH_t58tJFCymIWkSvHdqM1psAeT2YCvY-iLWhdfHQ8Ydx3_4Z4wr91fYkuztQny-eN3VQ?authuser=0&fife=s16383\" height=\"200\" width=\"auto\" /><br><br>Colocación realizada el día 22/09/2023, 1 (una) calzada completa de 6 mts.", "CGM": "San Jose" }, "geometry": { "type": "Point", "coordinates": [ -58.3482179, -34.7572039, 0.0 ] } },
{ "type": "Feature", "properties": { "Name": "San Cristóbal & El Hornero (y La Calandria)", "description": "<img src=\"https://mymaps.usercontent.google.com/hostedimage/m/*/3AL_Y2X6xmGM6ESX8ZDDabYF55pMYgig9x3kZzRkRDvbzz5AwbTu6ED83TlZ7wpyKxWeSEzkMPtST_0q2JT0sJ5EMh0WeWZnkodL9LgmB43Gmgs58xPwFg7JRzzLwPr7TKUcNWS7U_lC97PZFUPYB6_kWd1hkfOedFxgEvovH869vqxIZdfTbNSrdzKKXbj2QmbnjpNYWMNOOIrhHfNpEEKweMB8JNl7wbdv-ZENGegahk6N1Ryn0_5N3yvtmVb9k5w?authuser=0&fife=s16383\" height=\"200\" width=\"auto\" /><br><br>Colocación realizada el día 22/09/2023, 1 (una) calzada completa de 6 mts.", "CGM": "San Jose" }, "geometry": { "type": "Point", "coordinates": [ -58.3483655, -34.756999, 0.0 ] } },
{ "type": "Feature", "properties": { "Name": "El Churrinche & Avenida República Argentina", "description": "Nombre: <br>Descripción: ", "CGM": "San Jose" }, "geometry": { "type": "Point", "coordinates": [ -58.3648484, -34.7658627, 0.0 ] } },
{ "type": "Feature", "properties": { "Name": "El Churrinche & Avenida República Argentina", "description": "Nombre: <br>Descripción: ", "CGM": "San Jose" }, "geometry": { "type": "Point", "coordinates": [ -58.3650362, -34.7655586, 0.0 ] } },
{ "type": "Feature", "properties": { "Name": "Caaguazú y Baltasar", "description": null, "CGM": "San Jose" }, "geometry": { "type": "Point", "coordinates": [ -58.346052, -34.743958, 0.0 ] } },
{ "type": "Feature", "properties": { "Name": "Caaguazú y Dinamarca", "description": null, "CGM": "San Jose" }, "geometry": { "type": "Point", "coordinates": [ -58.346615, -34.7424, 0.0 ] } },
{ "type": "Feature", "properties": { "Name": "Caaguazú y Dinamarca", "description": null, "CGM": "San Jose" }, "geometry": { "type": "Point", "coordinates": [ -58.346551, -34.74255, 0.0 ] } }
]
}
