{
"type": "FeatureCollection",
"name": "sociedades_de_fomento_Lomas",
"crs": { "type": "name", "properties": { "name": "urn:ogc:def:crs:OGC:1.3:CRS84" } },
"features": [
{ "type": "Feature", "properties": { "CGM": "Lomas", "NOMBRE": "Sociedad De Fomento Barrio Parque Del Rey", "TIPO": "SOCIEDADES DE FOMENTO", "Fecha Vencimiento Reconocimiento": "2026-12-21T00:00:00", "LATITUD": -34.769288, "LONGITUD": -58.425988 }, "geometry": { "type": "Point", "coordinates": [ -58.425988, -34.769288 ] } },
{ "type": "Feature", "properties": { "CGM": "Lomas", "NOMBRE": "Sociedad Italiana Union Y Estrella Lomas De Zamora Mutual Social Y Cultural", "TIPO": "SOCIEDADES DE FOMENTO", "Fecha Vencimiento Reconocimiento": "2026-12-21T00:00:00", "LATITUD": -34.761217, "LONGITUD": -58.399832 }, "geometry": { "type": "Point", "coordinates": [ -58.399832, -34.761217 ] } },
{ "type": "Feature", "properties": { "CGM": "Lomas", "NOMBRE": "Union Vecinal De Fomento Villa Rey", "TIPO": "SOCIEDADES DE FOMENTO", "Fecha Vencimiento Reconocimiento": "2026-12-21T00:00:00", "LATITUD": -34.760485, "LONGITUD": -58.422008 }, "geometry": { "type": "Point", "coordinates": [ -58.422008, -34.760485 ] } },
{ "type": "Feature", "properties": { "CGM": "Lomas", "NOMBRE": "Sociedad De Fomento Barrio Laprida", "TIPO": "SOCIEDADES DE FOMENTO", "Fecha Vencimiento Reconocimiento": "2026-12-21T00:00:00", "LATITUD": -34.755384, "LONGITUD": -58.430645 }, "geometry": { "type": "Point", "coordinates": [ -58.430645, -34.755384 ] } },
{ "type": "Feature", "properties": { "CGM": "Lomas", "NOMBRE": "Social Las Heras", "TIPO": "SOCIEDADES DE FOMENTO", "Fecha Vencimiento Reconocimiento": "2026-12-21T00:00:00", "LATITUD": -34.74954466, "LONGITUD": -58.40404259 }, "geometry": { "type": "Point", "coordinates": [ -58.40404259, -34.74954466 ] } }
]
}
