{
"type": "FeatureCollection",
"name": "sociedades_de_fomento_San Jose",
"crs": { "type": "name", "properties": { "name": "urn:ogc:def:crs:OGC:1.3:CRS84" } },
"features": [
{ "type": "Feature", "properties": { "CGM": "San Jose", "NOMBRE": "Sociedad De Fomento Y Biblioteca El Fortin", "TIPO": "SOCIEDADES DE FOMENTO", "Fecha Vencimiento Reconocimiento": "2026-12-21T00:00:00", "LATITUD": -34.74964128, "LONGITUD": -58.3638886 }, "geometry": { "type": "Point", "coordinates": [ -58.3638886, -34.74964128 ] } },
{ "type": "Feature", "properties": { "CGM": "San Jose", "NOMBRE": "Sociedad De Fomento Y Cultura General Don Jose De San Martin", "TIPO": "SOCIEDADES DE FOMENTO", "Fecha Vencimiento Reconocimiento": "2026-12-21T00:00:00", "LATITUD": -34.74524268, "LONGITUD": -58.36596026 }, "geometry": { "type": "Point", "coordinates": [ -58.36596026, -34.74524268 ] } },
{ "type": "Feature", "properties": { "CGM": "San Jose", "NOMBRE": "Sociedad De  Fomento Barrio La Loma", "TIPO": "SOCIEDADES DE FOMENTO", "Fecha Vencimiento Reconocimiento": "2026-12-21T00:00:00", "LATITUD": -34.74709794, "LONGITUD": -58.35090599 }, "geometry": { "type": "Point", "coordinates": [ -58.35090599, -34.74709794 ] } },
{ "type": "Feature", "properties": { "CGM": "San Jose", "NOMBRE": "Sociedad De Fomento Almafuerte", "TIPO": "SOCIEDADES DE FOMENTO", "Fecha Vencimiento Reconocimiento": "2026-12-21T00:00:00", "LATITUD": -34.771919, "LONGITUD": -58.366013 }, "geometry": { "type": "Point", "coordinates": [ -58.366013, -34.771919 ] } },
{ "type": "Feature", "properties": { "CGM": "San Jose", "NOMBRE": "Soc. De Fomento Y Cultura General Don Jose De San Martin (S.M. De Ban)", "TIPO": "SOCIEDADES DE FOMENTO", "Fecha Vencimiento Reconocimiento": "2026-12-21T00:00:00", "LATITUD": -34.74527988, "LONGITUD": -58.36614606 }, "geometry": { "type": "Point", "coordinates": [ -58.36614606, -34.74527988 ] } },
{ "type": "Feature", "properties": { "CGM": "San Jose", "NOMBRE": "Sociedad De Fomento Año Del Libertador", "TIPO": "SOCIEDADES DE FOMENTO", "Fecha Vencimiento Reconocimiento": "2026-12-21T00:00:00", "LATITUD": -34.74365959, "LONGITUD": -58.34900043 }, "geometry": { "type": "Point", "coordinates": [ -58.34900043, -34.74365959 ] } },
{ "type": "Feature", "properties": { "CGM": "San Jose", "NOMBRE": "Sociedad De Fomento Barrio La Loma", "TIPO": "SOCIEDADES DE FOMENTO", "Fecha Vencimiento Reconocimiento": "2026-12-21T00:00:00", "LATITUD": -34.74731887, "LONGITUD": -58.35035398 }, "geometry": { "type": "Point", "coordinates": [ -58.35035398, -34.74731887 ] } },
{ "type": "Feature", "properties": { "CGM": "San Jose", "NOMBRE": "Sociedad De Fomento San Luis", "TIPO": "SOCIEDADES DE FOMENTO", "Fecha Vencimiento Reconocimiento": "2026-12-21T00:00:00", "LATITUD": -34.74448214, "LONGITUD": -58.35726026 }, "geometry": { "type": "Point", "coordinates": [ -58.35726026, -34.74448214 ] } },
{ "type": "Feature", "properties": { "CGM": "San Jose", "NOMBRE": "Sociedad De Fomento Sarmiento De Temperley", "TIPO": "SOCIEDADES DE FOMENTO", "Fecha Vencimiento Reconocimiento": "2026-12-21T00:00:00", "LATITUD": -34.74543287, "LONGITUD": -58.34459339 }, "geometry": { "type": "Point", "coordinates": [ -58.34459339, -34.74543287 ] } }
]
}
