{
"type": "FeatureCollection",
"name": "Solicitudes Semaforos 2026",
"crs": { "type": "name", "properties": { "name": "urn:ogc:def:crs:OGC:1.3:CRS84" } },
"features": [
{ "type": "Feature", "properties": { "Name": "Homero & Virgen de Itatí", "CGM": "ALBERTINA" }, "geometry": { "type": "Point", "coordinates": [ -58.4615306, -34.7359596, 0.0 ] } },
{ "type": "Feature", "properties": { "Name": "Eibar & Bustos", "CGM": "ALBERTINA" }, "geometry": { "type": "Point", "coordinates": [ -58.4612589, -34.7421008, 0.0 ] } },
{ "type": "Feature", "properties": { "Name": "Avenida General Martín Rodríguez & Andrés Bello", "CGM": "SANTA MARTA" }, "geometry": { "type": "Point", "coordinates": [ -58.4484214, -34.7435486, 0.0 ] } },
{ "type": "Feature", "properties": { "Name": "Marsella & Antonio Machado", "CGM": "ALBERTINA" }, "geometry": { "type": "Point", "coordinates": [ -58.4482617, -34.7369482, 0.0 ] } },
{ "type": "Feature", "properties": { "Name": "Virgen de Itatí & Andrés Bello", "CGM": "ALBERTINA" }, "geometry": { "type": "Point", "coordinates": [ -58.4562991, -34.7332415, 0.0 ] } },
{ "type": "Feature", "properties": { "Name": "General Arenales & Granaderos", "CGM": "BANFIELD" }, "geometry": { "type": "Point", "coordinates": [ -58.3883311, -34.750376, 0.0 ] } },
{ "type": "Feature", "properties": { "Name": "Avenida Adolfo Alsina & Peña", "CGM": "BANFIELD" }, "geometry": { "type": "Point", "coordinates": [ -58.3944047, -34.749335, 0.0 ] } },
{ "type": "Feature", "properties": { "Name": "Pedernera & General Campos", "CGM": "BANFIELD" }, "geometry": { "type": "Point", "coordinates": [ -58.3791304, -34.753687, 0.0 ] } },
{ "type": "Feature", "properties": { "Name": "Avenida Presbitero Pedro F. Uriarte & Almafuerte", "CGM": "BANFIELD" }, "geometry": { "type": "Point", "coordinates": [ -58.4073261, -34.7336732, 0.0 ] } },
{ "type": "Feature", "properties": { "Name": "Recondo & José Espronceda", "CGM": "BUDGE" }, "geometry": { "type": "Point", "coordinates": [ -58.459133, -34.7191327, 0.0 ] } },
{ "type": "Feature", "properties": { "Name": "Avenida 12 de Octubre & Carlos Glade", "CGM": "CENTENARIO" }, "geometry": { "type": "Point", "coordinates": [ -58.4261899, -34.7382726, 0.0 ] } },
{ "type": "Feature", "properties": { "Name": "Baradero & Gabriel Miró", "CGM": "FIORITO" }, "geometry": { "type": "Point", "coordinates": [ -58.4513079, -34.7093822, 0.0 ] } },
{ "type": "Feature", "properties": { "Name": "Larrazabal & Reaño", "CGM": "FIORITO" }, "geometry": { "type": "Point", "coordinates": [ -58.4444518, -34.6979417, 0.0 ] } },
{ "type": "Feature", "properties": { "Name": "Larrazabal & Baradero", "CGM": "FIORITO" }, "geometry": { "type": "Point", "coordinates": [ -58.4400789, -34.7031223, 0.0 ] } },
{ "type": "Feature", "properties": { "Name": "José Luis Murature & Bermejo", "CGM": "FIORITO" }, "geometry": { "type": "Point", "coordinates": [ -58.4352683, -34.711724, 0.0 ] } },
{ "type": "Feature", "properties": { "Name": "Avenida General Hornos & Baradero", "CGM": "FIORITO" }, "geometry": { "type": "Point", "coordinates": [ -58.4372141, -34.7015971, 0.0 ] } },
{ "type": "Feature", "properties": { "Name": "Pío Baroja & Ejército de los Andes", "CGM": "FIORITO" }, "geometry": { "type": "Point", "coordinates": [ -58.4408177, -34.7202714, 0.0 ] } },
{ "type": "Feature", "properties": { "Name": "Recondo & Avenida General Hornos", "CGM": "FIORITO" }, "geometry": { "type": "Point", "coordinates": [ -58.4341296, -34.7055588, 0.0 ] } },
{ "type": "Feature", "properties": { "Name": "Epecuén & Arana Goiri", "CGM": "LAMADRID" }, "geometry": { "type": "Point", "coordinates": [ -58.4686847, -34.7301949, 0.0 ] } },
{ "type": "Feature", "properties": { "Name": "Luzuriaga & Moldes", "CGM": "LLAVALLOL" }, "geometry": { "type": "Point", "coordinates": [ -58.4330396, -34.7912707, 0.0 ] } },
{ "type": "Feature", "properties": { "Name": "Mendoza & Doctor Jorge Melber", "CGM": "LLAVALLOL" }, "geometry": { "type": "Point", "coordinates": [ -58.4139729, -34.8026343, 0.0 ] } },
{ "type": "Feature", "properties": { "Name": "Charlone & Doctor Jorge Melber", "CGM": "LLAVALLOL" }, "geometry": { "type": "Point", "coordinates": [ -58.4186627, -34.8049717, 0.0 ] } },
{ "type": "Feature", "properties": { "Name": "Posadas y Oliden", "CGM": "LOMAS" }, "geometry": { "type": "Point", "coordinates": [ -58.4169254, -34.7718233, 0.0 ] } },
{ "type": "Feature", "properties": { "Name": "Avenida Olimpo & Capitán J. Yaben", "CGM": "SANTA CATALINA" }, "geometry": { "type": "Point", "coordinates": [ -58.4886401, -34.7391849, 0.0 ] } },
{ "type": "Feature", "properties": { "Name": "Raúl Lloberas & Avenida de la Noria", "CGM": "SANTA CATALINA" }, "geometry": { "type": "Point", "coordinates": [ -58.4788872, -34.7333274, 0.0 ] } },
{ "type": "Feature", "properties": { "Name": "Copihue & Homero", "CGM": "SANTA MARTA" }, "geometry": { "type": "Point", "coordinates": [ -58.4512862, -34.7496589, 0.0 ] } },
{ "type": "Feature", "properties": { "Name": "Lisandro de la Torre & Las Tropas", "CGM": "SANTA MARTA" }, "geometry": { "type": "Point", "coordinates": [ -58.4327723, -34.7445273, 0.0 ] } },
{ "type": "Feature", "properties": { "Name": "Tarija & Avenida Cabred", "CGM": "TEMPERLEY" }, "geometry": { "type": "Point", "coordinates": [ -58.3768598, -34.7781265, 0.0 ] } },
{ "type": "Feature", "properties": { "Name": "General Frías & San Luis", "CGM": "TURDERA" }, "geometry": { "type": "Point", "coordinates": [ -58.4156041, -34.7916853, 0.0 ] } }
]
}
